{"abbr":"KE","name_en":"Kenya","name_es":"Kenia","currency":"KES","callingCode":"254","continent":"AF","continente_name":"\u00c1frica","geoname_id":192950,"province":[{"countryId":"192950","adminCode1":"10","countryName":"Kenia","fclName":"country, state, region,...","countryCode":"KE","lng":"36","fcodeName":"first-order administrative division","toponymName":"Baringo","fcl":"A","name":"Baringo","fcode":"ADM1","geonameId":200573,"lat":"0.66667","adminName1":"Baringo","population":555561},{"countryId":"192950","adminCode1":"11","countryName":"Kenia","fclName":"country, state, region,...","countryCode":"KE","lng":"35.35","fcodeName":"first-order administrative division","toponymName":"Bomet","fcl":"A","name":"Bomet","fcode":"ADM1","geonameId":7667666,"lat":"-0.79","adminName1":"Bomet","population":724186},{"countryId":"192950","adminCode1":"12","countryName":"Kenia","fclName":"country, state, region,...","countryCode":"KE","lng":"34.639","fcodeName":"first-order administrative division","toponymName":"Bungoma","fcl":"A","name":"Bungoma","fcode":"ADM1","geonameId":200066,"lat":"0.66","adminName1":"Bungoma","population":1630934},{"countryId":"192950","adminCode1":"13","countryName":"Kenia","fclName":"country, state, region,...","countryCode":"KE","lng":"34.17","fcodeName":"first-order administrative division","toponymName":"Busia","fcl":"A","name":"Busia","fcode":"ADM1","geonameId":199987,"lat":"0.35","adminName1":"Busia","population":488075},{"countryId":"192950","adminCode1":"14","countryName":"Kenia","fclName":"country, state, region,...","countryCode":"KE","lng":"35.55","fcodeName":"first-order administrative division","toponymName":"Elegeyo-Marakwet","fcl":"A","name":"Elegeyo-Marakwet","fcode":"ADM1","geonameId":7667646,"lat":"0.99","adminName1":"Elegeyo-Marakwet","population":369998},{"countryId":"192950","adminCode1":"15","countryName":"Kenia","fclName":"country, state, region,...","countryCode":"KE","lng":"37.531","fcodeName":"first-order administrative division","toponymName":"Embu","fcl":"A","name":"Embu","fcode":"ADM1","geonameId":198474,"lat":"-0.425","adminName1":"Embu","population":516212},{"countryId":"192950","adminCode1":"16","countryName":"Kenia","fclName":"country, state, region,...","countryCode":"KE","lng":"40.041","fcodeName":"first-order administrative division","toponymName":"Garissa","fcl":"A","name":"Garissa","fcode":"ADM1","geonameId":197744,"lat":"-0.172","adminName1":"Garissa","population":623060},{"countryId":"192950","adminCode1":"17","countryName":"Kenia","fclName":"country, state, region,...","countryCode":"KE","lng":"34.481","fcodeName":"first-order administrative division","toponymName":"Homa Bay","fcl":"A","name":"Homa Bay","fcode":"ADM1","geonameId":7667665,"lat":"-0.666","adminName1":"Homa Bay","population":963794},{"countryId":"192950","adminCode1":"18","countryName":"Kenia","fclName":"country, state, region,...","countryCode":"KE","lng":"38.53333","fcodeName":"first-order administrative division","toponymName":"Isiolo","fcl":"A","name":"Isiolo","fcode":"ADM1","geonameId":196228,"lat":"0.98333","adminName1":"Isiolo","population":143294},{"countryId":"192950","adminCode1":"19","countryName":"Kenia","fclName":"country, state, region,...","countryCode":"KE","lng":"36.878","fcodeName":"first-order administrative division","toponymName":"Kajiado","fcl":"A","name":"Kajiado","fcode":"ADM1","geonameId":7667657,"lat":"-2.131","adminName1":"Kajiado","population":687312},{"countryId":"192950","adminCode1":"20","countryName":"Kenia","fclName":"country, state, region,...","countryCode":"KE","lng":"34.797","fcodeName":"first-order administrative division","toponymName":"Kakamega","fcl":"A","name":"Kakamega","fcode":"ADM1","geonameId":195271,"lat":"0.334","adminName1":"Kakamega","population":1660651},{"countryId":"192950","adminCode1":"08","countryName":"Kenia","fclName":"country, state, region,...","countryCode":"KE","lng":"35.55889","fcodeName":"first-order administrative division","toponymName":"Keiyo","fcl":"A","numberOfChildren":6,"name":"Keiyo","fcode":"ADM1","geonameId":7668899,"lat":"0.47754","adminName1":"Keiyo","population":0},{"countryId":"192950","adminCode1":"21","countryName":"Kenia","fclName":"country, state, region,...","countryCode":"KE","lng":"35.383","fcodeName":"first-order administrative division","toponymName":"Kericho","fcl":"A","name":"Kericho","fcode":"ADM1","geonameId":192898,"lat":"-0.273","adminName1":"Kericho","population":758339},{"countryId":"192950","adminCode1":"22","countryName":"Kenia","fclName":"country, state, region,...","countryCode":"KE","lng":"36.699","fcodeName":"first-order administrative division","toponymName":"Kiambu","fcl":"A","name":"Kiambu","fcode":"ADM1","geonameId":192709,"lat":"-1.09","adminName1":"Kiambu","population":1623282},{"countryId":"192950","adminCode1":"23","countryName":"Kenia","fclName":"country, state, region,...","countryCode":"KE","lng":"39.644","fcodeName":"first-order administrative division","toponymName":"Kilifi","fcl":"A","name":"Kilifi","fcode":"ADM1","geonameId":192064,"lat":"-3.563","adminName1":"Kilifi","population":1109735},{"countryId":"192950","adminCode1":"24","countryName":"Kenia","fclName":"country, state, region,...","countryCode":"KE","lng":"37.33333","fcodeName":"first-order administrative division","toponymName":"Kirinyaga","fcl":"A","name":"Kirinyaga","fcode":"ADM1","geonameId":191420,"lat":"-0.5","adminName1":"Kirinyaga","population":528054},{"countryId":"192950","adminCode1":"25","countryName":"Kenia","fclName":"country, state, region,...","countryCode":"KE","lng":"34.83333","fcodeName":"first-order administrative division","toponymName":"Kisii","fcl":"A","name":"Kisii","fcode":"ADM1","geonameId":191298,"lat":"-0.75","adminName1":"Kisii","population":1152282},{"countryId":"192950","adminCode1":"26","countryName":"Kenia","fclName":"country, state, region,...","countryCode":"KE","lng":"34.64","fcodeName":"first-order administrative division","toponymName":"Kisumu","fcl":"A","name":"Kisumu","fcode":"ADM1","geonameId":191242,"lat":"-0.069","adminName1":"Kisumu","population":968909},{"countryId":"192950","adminCode1":"27","countryName":"Kenia","fclName":"country, state, region,...","countryCode":"KE","lng":"38.451","fcodeName":"first-order administrative division","toponymName":"Kitui","fcl":"A","name":"Kitui","fcode":"ADM1","geonameId":191037,"lat":"-1.835","adminName1":"Kitui","population":1012709},{"countryId":"192950","adminCode1":"28","countryName":"Kenia","fclName":"country, state, region,...","countryCode":"KE","lng":"39.2","fcodeName":"first-order administrative division","toponymName":"Kwale","fcl":"A","name":"Kwale","fcode":"ADM1","geonameId":190106,"lat":"-4.13333","adminName1":"Kwale","population":649931},{"countryId":"192950","adminCode1":"29","countryName":"Kenia","fclName":"country, state, region,...","countryCode":"KE","lng":"36.76667","fcodeName":"first-order administrative division","toponymName":"Laikipia","fcl":"A","name":"Laikipia","fcode":"ADM1","geonameId":189794,"lat":"0.33333","adminName1":"Laikipia","population":399227},{"countryId":"192950","adminCode1":"30","countryName":"Kenia","fclName":"country, state, region,...","countryCode":"KE","lng":"40.9","fcodeName":"first-order administrative division","toponymName":"Lamu","fcl":"A","name":"Lamu","fcode":"ADM1","geonameId":7667643,"lat":"-2.28","adminName1":"Lamu","population":101539},{"countryId":"192950","adminCode1":"31","countryName":"Kenia","fclName":"country, state, region,...","countryCode":"KE","lng":"37.408","fcodeName":"first-order administrative division","toponymName":"Machakos","fcl":"A","name":"Machakos","fcode":"ADM1","geonameId":7667644,"lat":"-1.282","adminName1":"Machakos","population":1098584},{"countryId":"192950","adminCode1":"32","countryName":"Kenia","fclName":"country, state, region,...","countryCode":"KE","lng":"37.872","fcodeName":"first-order administrative division","toponymName":"Makueni","fcl":"A","name":"Makueni","fcode":"ADM1","geonameId":7667645,"lat":"-2.222","adminName1":"Makueni","population":884527},{"countryId":"192950","adminCode1":"33","countryName":"Kenia","fclName":"country, state, region,...","countryCode":"KE","lng":"40.7","fcodeName":"first-order administrative division","toponymName":"Mandera","fcl":"A","name":"Mandera","fcode":"ADM1","geonameId":187895,"lat":"3.36667","adminName1":"Mandera","population":1025756},{"countryId":"192950","adminCode1":"34","countryName":"Kenia","fclName":"country, state, region,...","countryCode":"KE","lng":"37.6","fcodeName":"first-order administrative division","toponymName":"Marsabit","fcl":"A","name":"Marsabit","fcode":"ADM1","geonameId":187583,"lat":"2.96667","adminName1":"Marsabit","population":291166},{"countryId":"192950","adminCode1":"35","countryName":"Kenia","fclName":"country, state, region,...","countryCode":"KE","lng":"37.518","fcodeName":"first-order administrative division","toponymName":"Meru","fcl":"A","name":"Meru","fcode":"ADM1","geonameId":186824,"lat":"0","adminName1":"Meru","population":1356301},{"countryId":"192950","adminCode1":"36","countryName":"Kenia","fclName":"country, state, region,...","countryCode":"KE","lng":"34.409","fcodeName":"first-order administrative division","toponymName":"Migori","fcl":"A","name":"Migori","fcode":"ADM1","geonameId":7667678,"lat":"-0.982","adminName1":"Migori","population":1028579},{"countryId":"192950","adminCode1":"37","countryName":"Kenia","fclName":"country, state, region,...","countryCode":"KE","lng":"39.66667","fcodeName":"first-order administrative division","toponymName":"Mombasa","fcl":"A","name":"Mombasa","fcode":"ADM1","geonameId":186298,"lat":"-4.02","adminName1":"Mombasa","population":939370},{"countryId":"192950","adminCode1":"38","countryName":"Kenia","fclName":"country, state, region,...","countryCode":"KE","lng":"36.994","fcodeName":"first-order administrative division","toponymName":"Murang'A","fcl":"A","name":"Murang'A","fcode":"ADM1","geonameId":185578,"lat":"-0.684","adminName1":"Murang'A","population":942581},{"countryId":"192950","adminCode1":"05","countryName":"Kenia","fclName":"country, state, region,...","countryCode":"KE","lng":"36.83333","fcodeName":"first-order administrative division","toponymName":"Nairobi","fcl":"A","numberOfChildren":1,"name":"Nairobi","fcode":"ADM1","geonameId":184742,"lat":"-1.28333","adminName1":"Nairobi Area","population":3138369},{"countryId":"192950","adminCode1":"39","countryName":"Kenia","fclName":"country, state, region,...","countryCode":"KE","lng":"36.17126","fcodeName":"first-order administrative division","toponymName":"Nakuru","fcl":"A","name":"Nakuru","fcode":"ADM1","geonameId":7668902,"lat":"-0.48402","adminName1":"Nakuru","population":1603325},{"countryId":"192950","adminCode1":"40","countryName":"Kenia","fclName":"country, state, region,...","countryCode":"KE","lng":"35.193","fcodeName":"first-order administrative division","toponymName":"Nandi","fcl":"A","name":"Nandi","fcode":"ADM1","geonameId":8051212,"lat":"0.055","adminName1":"Nandi","population":752965},{"countryId":"192950","adminCode1":"41","countryName":"Kenia","fclName":"country, state, region,...","countryCode":"KE","lng":"35.7356","fcodeName":"first-order administrative division","toponymName":"Narok","fcl":"A","name":"Narok","fcode":"ADM1","geonameId":7668904,"lat":"-1.24076","adminName1":"Narok","population":850920},{"countryId":"192950","adminCode1":"42","countryName":"Kenia","fclName":"country, state, region,...","countryCode":"KE","lng":"35","fcodeName":"first-order administrative division","toponymName":"Nyamira","fcl":"A","name":"Nyamira","fcode":"ADM1","geonameId":7806857,"lat":"-0.75","adminName1":"Nyamira","population":598252},{"countryId":"192950","adminCode1":"43","countryName":"Kenia","fclName":"country, state, region,...","countryCode":"KE","lng":"36.5","fcodeName":"first-order administrative division","toponymName":"Nyandarua","fcl":"A","name":"Nyandarua","fcode":"ADM1","geonameId":7603036,"lat":"-0.344","adminName1":"Nyandarua","population":596268},{"countryId":"192950","adminCode1":"44","countryName":"Kenia","fclName":"country, state, region,...","countryCode":"KE","lng":"36.95","fcodeName":"first-order administrative division","toponymName":"Nyeri","fcl":"A","name":"Nyeri","fcode":"ADM1","geonameId":7667661,"lat":"-0.42","adminName1":"Nyeri","population":693558},{"countryId":"192950","adminCode1":"45","countryName":"Kenia","fclName":"country, state, region,...","countryCode":"KE","lng":"37.11667","fcodeName":"first-order administrative division","toponymName":"Samburu","fcl":"A","name":"Samburu","fcode":"ADM1","geonameId":180782,"lat":"1.33333","adminName1":"Samburu","population":223947},{"countryId":"192950","adminCode1":"46","countryName":"Kenia","fclName":"country, state, region,...","countryCode":"KE","lng":"34.302","fcodeName":"first-order administrative division","toponymName":"Siaya","fcl":"A","name":"Siaya","fcode":"ADM1","geonameId":180320,"lat":"0.105","adminName1":"Siaya","population":842304},{"countryId":"192950","adminCode1":"47","countryName":"Kenia","fclName":"country, state, region,...","countryCode":"KE","lng":"38.37","fcodeName":"first-order administrative division","toponymName":"Taita Taveta","fcl":"A","name":"Taita Taveta","fcode":"ADM1","geonameId":7667652,"lat":"-3.4","adminName1":"Taita Taveta","population":284657},{"countryId":"192950","adminCode1":"48","countryName":"Kenia","fclName":"country, state, region,...","countryCode":"KE","lng":"39.41667","fcodeName":"first-order administrative division","toponymName":"Tana River","fcl":"A","name":"Tana River","fcode":"ADM1","geonameId":179585,"lat":"-1.53333","adminName1":"Tana River","population":240075},{"countryId":"192950","adminCode1":"49","countryName":"Kenia","fclName":"country, state, region,...","countryCode":"KE","lng":"38.02883","fcodeName":"first-order administrative division","toponymName":"Tharaka - Nithi","fcl":"A","name":"Tharaka - Nithi","fcode":"ADM1","geonameId":179380,"lat":"-0.10094","adminName1":"Tharaka - Nithi","population":365330},{"countryId":"192950","adminCode1":"50","countryName":"Kenia","fclName":"country, state, region,...","countryCode":"KE","lng":"34.979","fcodeName":"first-order administrative division","toponymName":"Trans Nzoia","fcl":"A","name":"Trans Nzoia","fcode":"ADM1","geonameId":179068,"lat":"1.045","adminName1":"Trans Nzoia","population":818757},{"countryId":"192950","adminCode1":"51","countryName":"Kenia","fclName":"country, state, region,...","countryCode":"KE","lng":"35.5","fcodeName":"first-order administrative division","toponymName":"Turkana","fcl":"A","name":"Turkana","fcode":"ADM1","geonameId":178914,"lat":"3","adminName1":"Turkana","population":855399},{"countryId":"192950","adminCode1":"52","countryName":"Kenia","fclName":"country, state, region,...","countryCode":"KE","lng":"35.31667","fcodeName":"first-order administrative division","toponymName":"Uasin Gishu","fcl":"A","name":"Uasin Gishu","fcode":"ADM1","geonameId":178837,"lat":"0.5","adminName1":"Uasin Gishu","population":894179},{"countryId":"192950","adminCode1":"53","countryName":"Kenia","fclName":"country, state, region,...","countryCode":"KE","lng":"34.712","fcodeName":"first-order administrative division","toponymName":"Vihiga","fcl":"A","name":"Vihiga","fcode":"ADM1","geonameId":7667638,"lat":"0.072","adminName1":"Vihiga","population":554622},{"countryId":"192950","adminCode1":"54","countryName":"Kenia","fclName":"country, state, region,...","countryCode":"KE","lng":"40.01667","fcodeName":"first-order administrative division","toponymName":"Wajir","fcl":"A","name":"Wajir","fcode":"ADM1","geonameId":178440,"lat":"1.75","adminName1":"Wajir","population":661941},{"countryId":"192950","adminCode1":"55","countryName":"Kenia","fclName":"country, state, region,...","countryCode":"KE","lng":"35.25","fcodeName":"first-order administrative division","toponymName":"West Pokot","fcl":"A","name":"West Pokot","fcode":"ADM1","geonameId":178145,"lat":"1.75","adminName1":"West Pokot","population":512690}]}