{"abbr":"LS","name_en":"Lesotho","name_es":"Lesotho","currency":"LSL","callingCode":"266","continent":"AF","continente_name":"\u00c1frica","geoname_id":932692,"province":[{"countryId":"932692","adminCode1":"10","countryName":"Lesotho","fclName":"country, state, region,...","countryCode":"LS","lng":"27.91667","fcodeName":"first-order administrative division","toponymName":"Berea","fcl":"A","numberOfChildren":6,"name":"Distrito de Berea","fcode":"ADM1","geonameId":932932,"lat":"-29.16667","adminName1":"Distrito de Berea","population":66863},{"countryId":"932692","adminCode1":"11","countryName":"Lesotho","fclName":"country, state, region,...","countryCode":"LS","lng":"28.56667","fcodeName":"first-order administrative division","toponymName":"Butha-Buthe","fcl":"A","name":"Distrito de Butha-Buthe","fcode":"ADM1","geonameId":932888,"lat":"-28.8","adminName1":"Distrito de Butha-Buthe","population":188480},{"countryId":"932692","adminCode1":"12","countryName":"Lesotho","fclName":"country, state, region,...","countryCode":"LS","lng":"28.25266","fcodeName":"first-order administrative division","toponymName":"Leribe District","fcl":"A","numberOfChildren":3,"name":"Distrito de Leribe","fcode":"ADM1","geonameId":932700,"lat":"-29.03651","adminName1":"Distrito de Leribe","population":414314},{"countryId":"932692","adminCode1":"18","countryName":"Lesotho","fclName":"country, state, region,...","countryCode":"LS","lng":"28","fcodeName":"first-order administrative division","toponymName":"Quthing","fcl":"A","name":"Distrito de Quthing","fcode":"ADM1","geonameId":932184,"lat":"-30.36667","adminName1":"Distrito de Quthing","population":228800},{"countryId":"932692","adminCode1":"19","countryName":"Lesotho","fclName":"country, state, region,...","countryCode":"LS","lng":"28.6","fcodeName":"first-order administrative division","toponymName":"Thaba-Tseka","fcl":"A","name":"Distrito de Thaba-Tseka","fcode":"ADM1","geonameId":932011,"lat":"-29.56667","adminName1":"Distrito de Thaba-Tseka","population":158144},{"countryId":"932692","adminCode1":"13","countryName":"Lesotho","fclName":"country, state, region,...","countryCode":"LS","lng":"27.50262","fcodeName":"first-order administrative division","toponymName":"Mafeteng District","fcl":"A","name":"Mafeteng District","fcode":"ADM1","geonameId":932615,"lat":"-29.8041","adminName1":"Mafeteng","population":351601},{"countryId":"932692","adminCode1":"14","countryName":"Lesotho","fclName":"country, state, region,...","countryCode":"LS","lng":"27.83333","fcodeName":"first-order administrative division","toponymName":"Maseru","fcl":"A","numberOfChildren":1,"name":"Maseru","fcode":"ADM1","geonameId":932506,"lat":"-29.58333","adminName1":"Maseru","population":316155},{"countryId":"932692","adminCode1":"15","countryName":"Lesotho","fclName":"country, state, region,...","countryCode":"LS","lng":"27.8","fcodeName":"first-order administrative division","toponymName":"Mohale\u2019s Hoek District","fcl":"A","name":"Mohale\u2019s Hoek District","fcode":"ADM1","geonameId":932439,"lat":"-30.06667","adminName1":"Mohale\u02bcs Hoek","population":0},{"countryId":"932692","adminCode1":"16","countryName":"Lesotho","fclName":"country, state, region,...","countryCode":"LS","lng":"29.03333","fcodeName":"first-order administrative division","toponymName":"Mokhotlong","fcl":"A","name":"Mokhotlong","fcode":"ADM1","geonameId":932418,"lat":"-29.21667","adminName1":"Mokhotlong","population":149044},{"countryId":"932692","adminCode1":"17","countryName":"Lesotho","fclName":"country, state, region,...","countryCode":"LS","lng":"28.75","fcodeName":"first-order administrative division","toponymName":"Qacha\u2019s Nek","fcl":"A","name":"Qacha\u2019s Nek","fcode":"ADM1","geonameId":932219,"lat":"-30","adminName1":"Qacha\u02bcs Nek","population":0}]}