{"abbr":"MT","name_en":"Malta","name_es":"Malta","currency":"EUR","callingCode":"356","continent":"EU","continente_name":"Europa","geoname_id":2562770,"province":[{"countryId":"2562770","adminCode1":"01","countryName":"Malta","fclName":"country, state, region,...","countryCode":"MT","lng":"14.43194","fcodeName":"first-order administrative division","toponymName":"Attard","fcl":"A","name":"Attard","fcode":"ADM1","geonameId":8299700,"lat":"35.89167","adminName1":"Attard","population":0},{"countryId":"2562770","adminCode1":"02","countryName":"Malta","fclName":"country, state, region,...","countryCode":"MT","lng":"14.45278","fcodeName":"first-order administrative division","toponymName":"Balzan","fcl":"A","name":"Balzan","fcode":"ADM1","geonameId":8299701,"lat":"35.89722","adminName1":"Balzan","population":0},{"countryId":"2562770","adminCode1":"04","countryName":"Malta","fclName":"country, state, region,...","countryCode":"MT","lng":"14.46528","fcodeName":"first-order administrative division","toponymName":"Birkirkara","fcl":"A","name":"Birkirkara","fcode":"ADM1","geonameId":8299703,"lat":"35.89722","adminName1":"Birkirkara","population":0},{"countryId":"2562770","adminCode1":"05","countryName":"Malta","fclName":"country, state, region,...","countryCode":"MT","lng":"14.52278","fcodeName":"first-order administrative division","toponymName":"Bir\u017cebbu\u0121a","fcl":"A","name":"Bir\u017cebbu\u0121a","fcode":"ADM1","geonameId":8299704,"lat":"35.82222","adminName1":"Bir\u017cebbu\u0121a","population":0},{"countryId":"2562770","adminCode1":"06","countryName":"Malta","fclName":"country, state, region,...","countryCode":"MT","lng":"14.52167","fcodeName":"first-order administrative division","toponymName":"Bormla","fcl":"A","name":"Bormla","fcode":"ADM1","geonameId":8299705,"lat":"35.88056","adminName1":"Bormla","population":0},{"countryId":"2562770","adminCode1":"07","countryName":"Malta","fclName":"country, state, region,...","countryCode":"MT","lng":"14.38333","fcodeName":"first-order administrative division","toponymName":"Dingli","fcl":"A","name":"Dingli","fcode":"ADM1","geonameId":8299706,"lat":"35.85972","adminName1":"Dingli","population":0},{"countryId":"2562770","adminCode1":"11","countryName":"Malta","fclName":"country, state, region,...","countryCode":"MT","lng":"14.28611","fcodeName":"first-order administrative division","toponymName":"G\u0127ajnsielem","fcl":"A","name":"G\u0127ajnsielem","fcode":"ADM1","geonameId":8299710,"lat":"36.02667","adminName1":"G\u0127ajnsielem","population":0},{"countryId":"2562770","adminCode1":"60","countryName":"Malta","fclName":"country, state, region,...","countryCode":"MT","lng":"14.5125","fcodeName":"first-order administrative division","toponymName":"Il-Belt Valletta","fcl":"A","name":"Il-Belt Valletta","fcode":"ADM1","geonameId":8334638,"lat":"35.89833","adminName1":"Il-Belt Valletta","population":0},{"countryId":"2562770","adminCode1":"03","countryName":"Malta","fclName":"country, state, region,...","countryCode":"MT","lng":"14.52417","fcodeName":"first-order administrative division","toponymName":"Il-Birgu","fcl":"A","name":"Il-Birgu","fcode":"ADM1","geonameId":8299702,"lat":"35.88611","adminName1":"Il-Birgu","population":0},{"countryId":"2562770","adminCode1":"08","countryName":"Malta","fclName":"country, state, region,...","countryCode":"MT","lng":"14.52028","fcodeName":"first-order administrative division","toponymName":"Il-Fgura","fcl":"A","name":"Il-Fgura","fcode":"ADM1","geonameId":8299707,"lat":"35.87278","adminName1":"Il-Fgura","population":11676},{"countryId":"2562770","adminCode1":"10","countryName":"Malta","fclName":"country, state, region,...","countryCode":"MT","lng":"14.23611","fcodeName":"first-order administrative division","toponymName":"Il-Fontana","fcl":"A","name":"Il-Fontana","fcode":"ADM1","geonameId":8299709,"lat":"36.0375","adminName1":"Il-Fontana","population":0},{"countryId":"2562770","adminCode1":"09","countryName":"Malta","fclName":"country, state, region,...","countryCode":"MT","lng":"14.50417","fcodeName":"first-order administrative division","toponymName":"Il-Furjana","fcl":"A","name":"Il-Furjana","fcode":"ADM1","geonameId":8299708,"lat":"35.89167","adminName1":"Il-Furjana","population":0},{"countryId":"2562770","adminCode1":"16","countryName":"Malta","fclName":"country, state, region,...","countryCode":"MT","lng":"14.50333","fcodeName":"first-order administrative division","toponymName":"Il-Gudja","fcl":"A","name":"Il-Gudja","fcode":"ADM1","geonameId":8299715,"lat":"35.85139","adminName1":"Il-Gudja","population":0},{"countryId":"2562770","adminCode1":"17","countryName":"Malta","fclName":"country, state, region,...","countryCode":"MT","lng":"14.49278","fcodeName":"first-order administrative division","toponymName":"Il-G\u017cira","fcl":"A","name":"Il-G\u017cira","fcode":"ADM1","geonameId":8299716,"lat":"35.90556","adminName1":"Il-G\u017cira","population":0},{"countryId":"2562770","adminCode1":"26","countryName":"Malta","fclName":"country, state, region,...","countryCode":"MT","lng":"14.53278","fcodeName":"first-order administrative division","toponymName":"Il-Kalkara","fcl":"A","name":"Il-Kalkara","fcode":"ADM1","geonameId":8299725,"lat":"35.89111","adminName1":"Il-Kalkara","population":0},{"countryId":"2562770","adminCode1":"31","countryName":"Malta","fclName":"country, state, region,...","countryCode":"MT","lng":"14.49222","fcodeName":"first-order administrative division","toponymName":"Il-Marsa","fcl":"A","name":"Il-Marsa","fcode":"ADM1","geonameId":8299730,"lat":"35.87639","adminName1":"Il-Marsa","population":0},{"countryId":"2562770","adminCode1":"34","countryName":"Malta","fclName":"country, state, region,...","countryCode":"MT","lng":"14.35139","fcodeName":"first-order administrative division","toponymName":"Il-Mellie\u0127a","fcl":"A","name":"Il-Mellie\u0127a","fcode":"ADM1","geonameId":8299733,"lat":"35.95833","adminName1":"Il-Mellie\u0127a","population":0},{"countryId":"2562770","adminCode1":"35","countryName":"Malta","fclName":"country, state, region,...","countryCode":"MT","lng":"14.42083","fcodeName":"first-order administrative division","toponymName":"Il-Mosta","fcl":"A","name":"Il-Mosta","fcode":"ADM1","geonameId":8299734,"lat":"35.9125","adminName1":"Il-Mosta","population":0},{"countryId":"2562770","adminCode1":"36","countryName":"Malta","fclName":"country, state, region,...","countryCode":"MT","lng":"14.22556","fcodeName":"first-order administrative division","toponymName":"Il-Munxar","fcl":"A","name":"Il-Munxar","fcode":"ADM1","geonameId":8299735,"lat":"36.02917","adminName1":"Il-Munxar","population":0},{"countryId":"2562770","adminCode1":"42","countryName":"Malta","fclName":"country, state, region,...","countryCode":"MT","lng":"14.31667","fcodeName":"first-order administrative division","toponymName":"Il-Qala","fcl":"A","name":"Il-Qala","fcode":"ADM1","geonameId":8299741,"lat":"36.0375","adminName1":"Il-Qala","population":0},{"countryId":"2562770","adminCode1":"44","countryName":"Malta","fclName":"country, state, region,...","countryCode":"MT","lng":"14.45139","fcodeName":"first-order administrative division","toponymName":"Il-Qrendi","fcl":"A","name":"Il-Qrendi","fcode":"ADM1","geonameId":8299743,"lat":"35.83194","adminName1":"Il-Qrendi","population":0},{"countryId":"2562770","adminCode1":"18","countryName":"Malta","fclName":"country, state, region,...","countryCode":"MT","lng":"14.48833","fcodeName":"first-order administrative division","toponymName":"Il-\u0126amrun","fcl":"A","name":"Il-\u0126amrun","fcode":"ADM1","geonameId":8299717,"lat":"35.88694","adminName1":"Il-\u0126amrun","population":0},{"countryId":"2562770","adminCode1":"37","countryName":"Malta","fclName":"country, state, region,...","countryCode":"MT","lng":"14.29444","fcodeName":"first-order administrative division","toponymName":"In-Nadur","fcl":"A","name":"In-Nadur","fcode":"ADM1","geonameId":8299736,"lat":"36.04861","adminName1":"In-Nadur","population":0},{"countryId":"2562770","adminCode1":"38","countryName":"Malta","fclName":"country, state, region,...","countryCode":"MT","lng":"14.4375","fcodeName":"first-order administrative division","toponymName":"In-Naxxar","fcl":"A","name":"In-Naxxar","fcode":"ADM1","geonameId":8299737,"lat":"35.93333","adminName1":"In-Naxxar","population":0},{"countryId":"2562770","adminCode1":"46","countryName":"Malta","fclName":"country, state, region,...","countryCode":"MT","lng":"14.24167","fcodeName":"first-order administrative division","toponymName":"Ir-Rabat","fcl":"A","name":"Ir-Rabat","fcode":"ADM1","geonameId":8299745,"lat":"36.04528","adminName1":"Ir-Rabat","population":0},{"countryId":"2562770","adminCode1":"55","countryName":"Malta","fclName":"country, state, region,...","countryCode":"MT","lng":"14.42639","fcodeName":"first-order administrative division","toponymName":"Is-Si\u0121\u0121iewi","fcl":"A","name":"Is-Si\u0121\u0121iewi","fcode":"ADM1","geonameId":8299754,"lat":"35.84861","adminName1":"Is-Si\u0121\u0121iewi","population":0},{"countryId":"2562770","adminCode1":"57","countryName":"Malta","fclName":"country, state, region,...","countryCode":"MT","lng":"14.46944","fcodeName":"first-order administrative division","toponymName":"Is-Swieqi","fcl":"A","name":"Is-Swieqi","fcode":"ADM1","geonameId":8299756,"lat":"35.92167","adminName1":"Is-Swieqi","population":0},{"countryId":"2562770","adminCode1":"61","countryName":"Malta","fclName":"country, state, region,...","countryCode":"MT","lng":"14.26667","fcodeName":"first-order administrative division","toponymName":"Ix-Xag\u0127ra","fcl":"A","name":"Ix-Xag\u0127ra","fcode":"ADM1","geonameId":8299759,"lat":"36.05417","adminName1":"Ix-Xag\u0127ra","population":0},{"countryId":"2562770","adminCode1":"62","countryName":"Malta","fclName":"country, state, region,...","countryCode":"MT","lng":"14.26111","fcodeName":"first-order administrative division","toponymName":"Ix-Xewkija","fcl":"A","name":"Ix-Xewkija","fcode":"ADM1","geonameId":8299760,"lat":"36.03333","adminName1":"Ix-Xewkija","population":0},{"countryId":"2562770","adminCode1":"63","countryName":"Malta","fclName":"country, state, region,...","countryCode":"MT","lng":"14.54861","fcodeName":"first-order administrative division","toponymName":"Ix-Xg\u0127ajra","fcl":"A","name":"Ix-Xg\u0127ajra","fcode":"ADM1","geonameId":8299761,"lat":"35.88472","adminName1":"Ix-Xg\u0127ajra","population":0},{"countryId":"2562770","adminCode1":"66","countryName":"Malta","fclName":"country, state, region,...","countryCode":"MT","lng":"14.24444","fcodeName":"first-order administrative division","toponymName":"I\u017c-\u017bebbu\u0121","fcl":"A","name":"I\u017c-\u017bebbu\u0121","fcode":"ADM1","geonameId":8299764,"lat":"36.06667","adminName1":"I\u017c-\u017bebbu\u0121","population":1770},{"countryId":"2562770","adminCode1":"67","countryName":"Malta","fclName":"country, state, region,...","countryCode":"MT","lng":"14.53333","fcodeName":"first-order administrative division","toponymName":"I\u017c-\u017bejtun","fcl":"A","name":"I\u017c-\u017bejtun","fcode":"ADM1","geonameId":8299765,"lat":"35.85778","adminName1":"I\u017c-\u017bejtun","population":0},{"countryId":"2562770","adminCode1":"68","countryName":"Malta","fclName":"country, state, region,...","countryCode":"MT","lng":"14.48333","fcodeName":"first-order administrative division","toponymName":"I\u017c-\u017burrieq","fcl":"A","name":"I\u017c-\u017burrieq","fcode":"ADM1","geonameId":8299766,"lat":"35.82222","adminName1":"I\u017c-\u017burrieq","population":0},{"countryId":"2562770","adminCode1":"28","countryName":"Malta","fclName":"country, state, region,...","countryCode":"MT","lng":"14.48417","fcodeName":"first-order administrative division","toponymName":"Kirkop","fcl":"A","name":"Kirkop","fcode":"ADM1","geonameId":8299727,"lat":"35.84417","adminName1":"Kirkop","population":0},{"countryId":"2562770","adminCode1":"12","countryName":"Malta","fclName":"country, state, region,...","countryCode":"MT","lng":"14.20139","fcodeName":"first-order administrative division","toponymName":"L-G\u0127arb","fcl":"A","name":"L-G\u0127arb","fcode":"ADM1","geonameId":8299711,"lat":"36.06806","adminName1":"L-G\u0127arb","population":0},{"countryId":"2562770","adminCode1":"14","countryName":"Malta","fclName":"country, state, region,...","countryCode":"MT","lng":"14.22167","fcodeName":"first-order administrative division","toponymName":"L-G\u0127asri","fcl":"A","name":"L-G\u0127asri","fcode":"ADM1","geonameId":8299713,"lat":"36.06528","adminName1":"L-G\u0127asri","population":0},{"countryId":"2562770","adminCode1":"19","countryName":"Malta","fclName":"country, state, region,...","countryCode":"MT","lng":"14.45556","fcodeName":"first-order administrative division","toponymName":"L-Iklin","fcl":"A","name":"L-Iklin","fcode":"ADM1","geonameId":8299718,"lat":"35.90972","adminName1":"L-Iklin","population":3198},{"countryId":"2562770","adminCode1":"20","countryName":"Malta","fclName":"country, state, region,...","countryCode":"MT","lng":"14.40528","fcodeName":"first-order administrative division","toponymName":"L-Imdina","fcl":"A","name":"L-Imdina","fcode":"ADM1","geonameId":8299719,"lat":"35.88722","adminName1":"L-Imdina","population":0},{"countryId":"2562770","adminCode1":"22","countryName":"Malta","fclName":"country, state, region,...","countryCode":"MT","lng":"14.4675","fcodeName":"first-order administrative division","toponymName":"L-Imqabba","fcl":"A","name":"L-Imqabba","fcode":"ADM1","geonameId":8299721,"lat":"35.845","adminName1":"L-Imqabba","population":0},{"countryId":"2562770","adminCode1":"23","countryName":"Malta","fclName":"country, state, region,...","countryCode":"MT","lng":"14.48389","fcodeName":"first-order administrative division","toponymName":"L-Imsida","fcl":"A","name":"L-Imsida","fcode":"ADM1","geonameId":8299722,"lat":"35.89861","adminName1":"L-Imsida","population":0},{"countryId":"2562770","adminCode1":"24","countryName":"Malta","fclName":"country, state, region,...","countryCode":"MT","lng":"14.39722","fcodeName":"first-order administrative division","toponymName":"L-Imtarfa","fcl":"A","name":"L-Imtarfa","fcode":"ADM1","geonameId":8299723,"lat":"35.89056","adminName1":"L-Imtarfa","population":0},{"countryId":"2562770","adminCode1":"21","countryName":"Malta","fclName":"country, state, region,...","countryCode":"MT","lng":"14.36389","fcodeName":"first-order administrative division","toponymName":"L-Im\u0121arr","fcl":"A","name":"L-Im\u0121arr","fcode":"ADM1","geonameId":8299720,"lat":"35.91944","adminName1":"L-Im\u0121arr","population":0},{"countryId":"2562770","adminCode1":"25","countryName":"Malta","fclName":"country, state, region,...","countryCode":"MT","lng":"14.51694","fcodeName":"first-order administrative division","toponymName":"L-Isla","fcl":"A","name":"L-Isla","fcode":"ADM1","geonameId":8299724,"lat":"35.88778","adminName1":"L-Isla","population":0},{"countryId":"2562770","adminCode1":"29","countryName":"Malta","fclName":"country, state, region,...","countryCode":"MT","lng":"14.44222","fcodeName":"first-order administrative division","toponymName":"Lija","fcl":"A","name":"Lija","fcode":"ADM1","geonameId":8299728,"lat":"35.90139","adminName1":"Lija","population":0},{"countryId":"2562770","adminCode1":"30","countryName":"Malta","fclName":"country, state, region,...","countryCode":"MT","lng":"14.48333","fcodeName":"first-order administrative division","toponymName":"Luqa","fcl":"A","name":"Luqa","fcode":"ADM1","geonameId":8299729,"lat":"35.85972","adminName1":"Luqa","population":0},{"countryId":"2562770","adminCode1":"32","countryName":"Malta","fclName":"country, state, region,...","countryCode":"MT","lng":"14.55917","fcodeName":"first-order administrative division","toponymName":"Marsaskala","fcl":"A","name":"Marsaskala","fcode":"ADM1","geonameId":8299731,"lat":"35.86056","adminName1":"Marsaskala","population":0},{"countryId":"2562770","adminCode1":"33","countryName":"Malta","fclName":"country, state, region,...","countryCode":"MT","lng":"14.55139","fcodeName":"first-order administrative division","toponymName":"Marsaxlokk","fcl":"A","name":"Marsaxlokk","fcode":"ADM1","geonameId":8299732,"lat":"35.84167","adminName1":"Marsaxlokk","population":0},{"countryId":"2562770","adminCode1":"39","countryName":"Malta","fclName":"country, state, region,...","countryCode":"MT","lng":"14.50611","fcodeName":"first-order administrative division","toponymName":"Paola","fcl":"A","name":"Paola","fcode":"ADM1","geonameId":8299738,"lat":"35.87361","adminName1":"Paola","population":0},{"countryId":"2562770","adminCode1":"40","countryName":"Malta","fclName":"country, state, region,...","countryCode":"MT","lng":"14.47639","fcodeName":"first-order administrative division","toponymName":"Pembroke","fcl":"A","name":"Pembroke","fcode":"ADM1","geonameId":8299739,"lat":"35.93056","adminName1":"Pembroke","population":0},{"countryId":"2562770","adminCode1":"43","countryName":"Malta","fclName":"country, state, region,...","countryCode":"MT","lng":"14.46667","fcodeName":"first-order administrative division","toponymName":"Qormi","fcl":"A","name":"Qormi","fcode":"ADM1","geonameId":8299742,"lat":"35.87917","adminName1":"Qormi","population":0},{"countryId":"2562770","adminCode1":"47","countryName":"Malta","fclName":"country, state, region,...","countryCode":"MT","lng":"14.49167","fcodeName":"first-order administrative division","toponymName":"Safi","fcl":"A","name":"Safi","fcode":"ADM1","geonameId":8299746,"lat":"35.83472","adminName1":"Safi","population":0},{"countryId":"2562770","adminCode1":"48","countryName":"Malta","fclName":"country, state, region,...","countryCode":"MT","lng":"14.475","fcodeName":"first-order administrative division","toponymName":"Saint John","fcl":"A","name":"Saint John","fcode":"ADM1","geonameId":8299747,"lat":"35.90889","adminName1":"Saint John","population":0},{"countryId":"2562770","adminCode1":"49","countryName":"Malta","fclName":"country, state, region,...","countryCode":"MT","lng":"14.48944","fcodeName":"first-order administrative division","toponymName":"Saint Julian's","fcl":"A","name":"Saint Julian's","fcode":"ADM1","geonameId":8299748,"lat":"35.91722","adminName1":"Saint Julian","population":7752},{"countryId":"2562770","adminCode1":"50","countryName":"Malta","fclName":"country, state, region,...","countryCode":"MT","lng":"14.19778","fcodeName":"first-order administrative division","toponymName":"Saint Lawrence","fcl":"A","name":"Saint Lawrence","fcode":"ADM1","geonameId":8299749,"lat":"36.04861","adminName1":"Saint Lawrence","population":0},{"countryId":"2562770","adminCode1":"51","countryName":"Malta","fclName":"country, state, region,...","countryCode":"MT","lng":"14.50639","fcodeName":"first-order administrative division","toponymName":"Saint Lucia","fcl":"A","name":"Saint Lucia","fcode":"ADM1","geonameId":8299750,"lat":"35.86167","adminName1":"Saint Lucia","population":0},{"countryId":"2562770","adminCode1":"52","countryName":"Malta","fclName":"country, state, region,...","countryCode":"MT","lng":"14.39861","fcodeName":"first-order administrative division","toponymName":"Saint Paul\u2019s Bay","fcl":"A","name":"Saint Paul\u2019s Bay","fcode":"ADM1","geonameId":8299751,"lat":"35.9375","adminName1":"Saint Paul\u2019s Bay","population":14057},{"countryId":"2562770","adminCode1":"53","countryName":"Malta","fclName":"country, state, region,...","countryCode":"MT","lng":"14.47778","fcodeName":"first-order administrative division","toponymName":"Saint Venera","fcl":"A","name":"Saint Venera","fcode":"ADM1","geonameId":8299752,"lat":"35.89028","adminName1":"Saint Venera","population":0},{"countryId":"2562770","adminCode1":"54","countryName":"Malta","fclName":"country, state, region,...","countryCode":"MT","lng":"14.25139","fcodeName":"first-order administrative division","toponymName":"Sannat","fcl":"A","name":"Sannat","fcode":"ADM1","geonameId":8299753,"lat":"36.02306","adminName1":"Sannat","population":0},{"countryId":"2562770","adminCode1":"41","countryName":"Malta","fclName":"country, state, region,...","countryCode":"MT","lng":"14.49389","fcodeName":"first-order administrative division","toponymName":"Tal-Piet\u00e0","fcl":"A","name":"Tal-Piet\u00e0","fcode":"ADM1","geonameId":8299740,"lat":"35.8925","adminName1":"Tal-Piet\u00e0","population":0},{"countryId":"2562770","adminCode1":"58","countryName":"Malta","fclName":"country, state, region,...","countryCode":"MT","lng":"14.51306","fcodeName":"first-order administrative division","toponymName":"Tarxien","fcl":"A","name":"Tarxien","fcode":"ADM1","geonameId":8299757,"lat":"35.86667","adminName1":"Tarxien","population":0},{"countryId":"2562770","adminCode1":"56","countryName":"Malta","fclName":"country, state, region,...","countryCode":"MT","lng":"14.50222","fcodeName":"first-order administrative division","toponymName":"Tas-Sliema","fcl":"A","name":"Tas-Sliema","fcode":"ADM1","geonameId":8299755,"lat":"35.9125","adminName1":"Tas-Sliema","population":0},{"countryId":"2562770","adminCode1":"27","countryName":"Malta","fclName":"country, state, region,...","countryCode":"MT","lng":"14.21611","fcodeName":"first-order administrative division","toponymName":"Ta\u2019 Ker\u010bem","fcl":"A","name":"Ta\u2019 Ker\u010bem","fcode":"ADM1","geonameId":8299726,"lat":"36.04389","adminName1":"Ta\u2019 Ker\u010bem","population":0},{"countryId":"2562770","adminCode1":"59","countryName":"Malta","fclName":"country, state, region,...","countryCode":"MT","lng":"14.49611","fcodeName":"first-order administrative division","toponymName":"Ta\u2019 Xbiex","fcl":"A","name":"Ta\u2019 Xbiex","fcode":"ADM1","geonameId":8299758,"lat":"35.89944","adminName1":"Ta\u2019 Xbiex","population":0},{"countryId":"2562770","adminCode1":"13","countryName":"Malta","fclName":"country, state, region,...","countryCode":"MT","lng":"14.455","fcodeName":"first-order administrative division","toponymName":"\u0126al G\u0127arg\u0127ur","fcl":"A","name":"\u0126al G\u0127arg\u0127ur","fcode":"ADM1","geonameId":8299712,"lat":"35.92361","adminName1":"\u0126al G\u0127arg\u0127ur","population":0},{"countryId":"2562770","adminCode1":"15","countryName":"Malta","fclName":"country, state, region,...","countryCode":"MT","lng":"14.51667","fcodeName":"first-order administrative division","toponymName":"\u0126al G\u0127axaq","fcl":"A","name":"\u0126al G\u0127axaq","fcode":"ADM1","geonameId":8299714,"lat":"35.84583","adminName1":"\u0126al G\u0127axaq","population":0},{"countryId":"2562770","adminCode1":"64","countryName":"Malta","fclName":"country, state, region,...","countryCode":"MT","lng":"14.54167","fcodeName":"first-order administrative division","toponymName":"\u0126a\u017c-\u017babbar","fcl":"A","name":"\u0126a\u017c-\u017babbar","fcode":"ADM1","geonameId":8299762,"lat":"35.875","adminName1":"\u0126a\u017c-\u017babbar","population":0},{"countryId":"2562770","adminCode1":"65","countryName":"Malta","fclName":"country, state, region,...","countryCode":"MT","lng":"14.43611","fcodeName":"first-order administrative division","toponymName":"\u0126a\u017c-\u017bebbu\u0121","fcl":"A","name":"\u0126a\u017c-\u017bebbu\u0121","fcode":"ADM1","geonameId":8299763,"lat":"35.87361","adminName1":"\u0126a\u017c-\u017bebbu\u0121","population":0}]}