{"abbr":"LB","name_en":"Lebanon","name_es":"L\u00edbano","currency":"LBP","callingCode":"961","continent":"AS","continente_name":"Asia","geoname_id":272103,"province":[{"countryId":"272103","adminCode1":"04","countryName":"L\u00edbano","fclName":"country, state, region,...","countryCode":"LB","lng":"35.5","fcodeName":"first-order administrative division","toponymName":"Beyrouth","fcl":"A","name":"Beyrouth","fcode":"ADM1","geonameId":276780,"lat":"33.88333","adminName1":"Beyrouth","population":0},{"countryId":"272103","adminCode1":"10","countryName":"L\u00edbano","fclName":"country, state, region,...","countryCode":"LB","lng":"36.16667","fcodeName":"first-order administrative division","toponymName":"Mohafazat Aakk\u00e2r","fcl":"A","numberOfChildren":1,"name":"Mohafazat Aakk\u00e2r","fcode":"ADM1","geonameId":6201370,"lat":"34.53333","adminName1":"Aakk\u00e2r","population":0},{"countryId":"272103","adminCode1":"11","countryName":"L\u00edbano","fclName":"country, state, region,...","countryCode":"LB","lng":"36.3","fcodeName":"first-order administrative division","toponymName":"Mohafazat Baalbek-Hermel","fcl":"A","numberOfChildren":2,"name":"Mohafazat Baalbek-Hermel","fcode":"ADM1","geonameId":6201371,"lat":"34.20833","adminName1":"Baalbek-Hermel","population":0},{"countryId":"272103","adminCode1":"08","countryName":"L\u00edbano","fclName":"country, state, region,...","countryCode":"LB","lng":"35.83333","fcodeName":"first-order administrative division","toponymName":"Mohafazat B\u00e9qaa","fcl":"A","numberOfChildren":3,"name":"Mohafazat B\u00e9qaa","fcode":"ADM1","geonameId":280282,"lat":"33.66667","adminName1":"B\u00e9qaa","population":0},{"countryId":"272103","adminCode1":"09","countryName":"L\u00edbano","fclName":"country, state, region,...","countryCode":"LB","lng":"35.91667","fcodeName":"first-order administrative division","toponymName":"Mohafazat Liban-Nord","fcl":"A","numberOfChildren":6,"name":"Mohafazat Liban-Nord","fcode":"ADM1","geonameId":278297,"lat":"34.33333","adminName1":"Liban-Nord","population":899339},{"countryId":"272103","adminCode1":"06","countryName":"L\u00edbano","fclName":"country, state, region,...","countryCode":"LB","lng":"35.33333","fcodeName":"first-order administrative division","toponymName":"Mohafazat Liban-Sud","fcl":"A","numberOfChildren":3,"name":"Mohafazat Liban-Sud","fcode":"ADM1","geonameId":279894,"lat":"33.41667","adminName1":"Liban-Sud","population":0},{"countryId":"272103","adminCode1":"07","countryName":"L\u00edbano","fclName":"country, state, region,...","countryCode":"LB","lng":"35.5","fcodeName":"first-order administrative division","toponymName":"Mohafazat Nabat\u00eey\u00e9","fcl":"A","numberOfChildren":5,"name":"Mohafazat Nabat\u00eey\u00e9","fcode":"ADM1","geonameId":444191,"lat":"33.25","adminName1":"Nabat\u00eey\u00e9","population":0},{"countryId":"272103","adminCode1":"05","countryName":"L\u00edbano","fclName":"country, state, region,...","countryCode":"LB","lng":"35.66667","fcodeName":"first-order administrative division","toponymName":"Mohafazat Mont-Liban","fcl":"A","numberOfChildren":7,"name":"Monte Libano","fcode":"ADM1","geonameId":273607,"lat":"33.91667","adminName1":"Monte Libano","population":1679229}]}