{"abbr":"FK","name_en":"Falkland Islands","name_es":"Islas Malvinas","currency":"FKP","callingCode":"500","continent":"SA","continente_name":"Sudam\u00e9rica","geoname_id":3474414,"province":[{"countryId":"3474414","adminCode1":"00","countryName":"Islas Malvinas","fclName":"city, village,...","countryCode":"FK","lng":"-61.25385","fcodeName":"populated place","toponymName":"Beaver Settlement","fcl":"P","name":"Beaver Settlement","fcode":"PPL","geonameId":3965420,"lat":"-51.85317","adminName1":"","population":0},{"countryId":"3474414","adminCode1":"00","countryName":"Islas Malvinas","fclName":"city, village,...","countryCode":"FK","lng":"-58.17847","fcodeName":"populated place","toponymName":"Bluff Cove","fcl":"P","name":"Bluff Cove","fcode":"PPL","geonameId":3427167,"lat":"-51.74826","adminName1":"","population":0},{"countryId":"3474414","adminCode1":"00","countryName":"Islas Malvinas","fclName":"city, village,...","countryCode":"FK","lng":"-58.17563","fcodeName":"populated place","toponymName":"Bluff Cove Settlement","fcl":"P","name":"Bluff Cove Settlement","fcode":"PPL","geonameId":3473344,"lat":"-51.74753","adminName1":"","population":0},{"countryId":"3474414","adminCode1":"00","countryName":"Islas Malvinas","fclName":"city, village,...","countryCode":"FK","lng":"-58.68586","fcodeName":"populated place","toponymName":"Bombilia House","fcl":"P","name":"Bombilia House","fcode":"PPL","geonameId":3427153,"lat":"-51.54812","adminName1":"","population":0},{"countryId":"3474414","adminCode1":"00","countryName":"Islas Malvinas","fclName":"city, village,...","countryCode":"FK","lng":"-58.93937","fcodeName":"populated place","toponymName":"Burnside House","fcl":"P","name":"Burnside House","fcode":"PPL","geonameId":3427139,"lat":"-51.78409","adminName1":"","population":0},{"countryId":"3474414","adminCode1":"00","countryName":"Islas Malvinas","fclName":"city, village,...","countryCode":"FK","lng":"-58.96667","fcodeName":"populated place","toponymName":"Camp Verde","fcl":"P","name":"Camp Verde","fcode":"PPL","geonameId":3427129,"lat":"-51.53333","adminName1":"","population":0},{"countryId":"3474414","adminCode1":"00","countryName":"Islas Malvinas","fclName":"city, village,...","countryCode":"FK","lng":"-60.55696","fcodeName":"populated place","toponymName":"Carcass Island Settlement","fcl":"P","name":"Carcass Island Settlement","fcode":"PPL","geonameId":3965571,"lat":"-51.29086","adminName1":"","population":0},{"countryId":"3474414","adminCode1":"00","countryName":"Islas Malvinas","fclName":"city, village,...","countryCode":"FK","lng":"-58.85","fcodeName":"populated place","toponymName":"Ceritos","fcl":"P","name":"Ceritos","fcode":"PPL","geonameId":3427113,"lat":"-51.71667","adminName1":"","population":0},{"countryId":"3474414","adminCode1":"00","countryName":"Islas Malvinas","fclName":"city, village,...","countryCode":"FK","lng":"-60.07954","fcodeName":"populated place","toponymName":"Chartres","fcl":"P","name":"Chartres","fcode":"PPL","geonameId":3831995,"lat":"-51.71108","adminName1":"","population":0},{"countryId":"3474414","adminCode1":"00","countryName":"Islas Malvinas","fclName":"city, village,...","countryCode":"FK","lng":"-59.93333","fcodeName":"populated place","toponymName":"Cranmer","fcl":"P","name":"Cranmer","fcode":"PPL","geonameId":3427091,"lat":"-51.33333","adminName1":"","population":0},{"countryId":"3474414","adminCode1":"00","countryName":"Islas Malvinas","fclName":"city, village,...","countryCode":"FK","lng":"-58.95961","fcodeName":"populated place","toponymName":"Darwin Settlement","fcl":"P","name":"Darwin Settlement","fcode":"PPL","geonameId":3427086,"lat":"-51.80693","adminName1":"","population":0},{"countryId":"3474414","adminCode1":"00","countryName":"Islas Malvinas","fclName":"city, village,...","countryCode":"FK","lng":"-59.25","fcodeName":"populated place","toponymName":"Dos Lomas","fcl":"P","name":"Dos Lomas","fcode":"PPL","geonameId":3427076,"lat":"-51.78333","adminName1":"","population":0},{"countryId":"3474414","adminCode1":"00","countryName":"Islas Malvinas","fclName":"city, village,...","countryCode":"FK","lng":"-58.60884","fcodeName":"populated place","toponymName":"Douglas Settlement","fcl":"P","name":"Douglas Settlement","fcode":"PPL","geonameId":3427074,"lat":"-51.45986","adminName1":"","population":0},{"countryId":"3474414","adminCode1":"00","countryName":"Islas Malvinas","fclName":"city, village,...","countryCode":"FK","lng":"-60.41657","fcodeName":"populated place","toponymName":"Dunnose Head Settlement","fcl":"P","name":"Dunnose Head Settlement","fcode":"PPL","geonameId":3831968,"lat":"-51.74147","adminName1":"","population":0},{"countryId":"3474414","adminCode1":"00","countryName":"Islas Malvinas","fclName":"city, village,...","countryCode":"FK","lng":"-58.16517","fcodeName":"populated place","toponymName":"Estancia House","fcl":"P","name":"Estancia House","fcode":"PPL","geonameId":3427042,"lat":"-51.6353","adminName1":"","population":0},{"countryId":"3474414","adminCode1":"00","countryName":"Islas Malvinas","fclName":"city, village,...","countryCode":"FK","lng":"-58.25","fcodeName":"populated place","toponymName":"Fitzroy North","fcl":"P","name":"Fitzroy North","fcode":"PPL","geonameId":3427019,"lat":"-51.73333","adminName1":"","population":0},{"countryId":"3474414","adminCode1":"00","countryName":"Islas Malvinas","fclName":"city, village,...","countryCode":"FK","lng":"-58.22629","fcodeName":"populated place","toponymName":"Fitzroy Settlement","fcl":"P","name":"Fitzroy Settlement","fcode":"PPL","geonameId":3427023,"lat":"-51.78694","adminName1":"","population":0},{"countryId":"3474414","adminCode1":"00","countryName":"Islas Malvinas","fclName":"city, village,...","countryCode":"FK","lng":"-58.33088","fcodeName":"populated place","toponymName":"Foam Creek House","fcl":"P","name":"Foam Creek House","fcode":"PPL","geonameId":3473351,"lat":"-51.46784","adminName1":"","population":0},{"countryId":"3474414","adminCode1":"00","countryName":"Islas Malvinas","fclName":"city, village,...","countryCode":"FK","lng":"-60.06929","fcodeName":"populated place","toponymName":"Fox Bay East Settlement","fcl":"P","name":"Fox Bay East Settlement","fcode":"PPL","geonameId":3831938,"lat":"-51.95656","adminName1":"","population":0},{"countryId":"3474414","adminCode1":"00","countryName":"Islas Malvinas","fclName":"city, village,...","countryCode":"FK","lng":"-60.08438","fcodeName":"populated place","toponymName":"Fox Bay West Settlement","fcl":"P","name":"Fox Bay West Settlement","fcode":"PPL","geonameId":3831937,"lat":"-51.95168","adminName1":"","population":0},{"countryId":"3474414","adminCode1":"00","countryName":"Islas Malvinas","fclName":"city, village,...","countryCode":"FK","lng":"-58.96714","fcodeName":"populated place","toponymName":"Goose Green Settlement","fcl":"P","name":"Goose Green Settlement","fcode":"PPL","geonameId":3426996,"lat":"-51.82591","adminName1":"","population":70},{"countryId":"3474414","adminCode1":"00","countryName":"Islas Malvinas","fclName":"city, village,...","countryCode":"FK","lng":"-58.11785","fcodeName":"populated place","toponymName":"Green Patch Settlement","fcl":"P","name":"Green Patch Settlement","fcode":"PPL","geonameId":3473349,"lat":"-51.54833","adminName1":"","population":0},{"countryId":"3474414","adminCode1":"00","countryName":"Islas Malvinas","fclName":"city, village,...","countryCode":"FK","lng":"-60.11559","fcodeName":"populated place","toponymName":"Hill Cove","fcl":"P","name":"Hill Cove","fcode":"PPL","geonameId":3831908,"lat":"-51.4974","adminName1":"","population":0},{"countryId":"3474414","adminCode1":"00","countryName":"Islas Malvinas","fclName":"city, village,...","countryCode":"FK","lng":"-59.35632","fcodeName":"populated place","toponymName":"Hope Cottage","fcl":"P","name":"Hope Cottage","fcode":"PPL","geonameId":3426965,"lat":"-51.86315","adminName1":"","population":0},{"countryId":"3474414","adminCode1":"00","countryName":"Islas Malvinas","fclName":"city, village,...","countryCode":"FK","lng":"-58.21667","fcodeName":"populated place","toponymName":"Horseshoe Bay","fcl":"P","name":"Horseshoe Bay","fcode":"PPL","geonameId":3426961,"lat":"-51.53333","adminName1":"","population":0},{"countryId":"3474414","adminCode1":"00","countryName":"Islas Malvinas","fclName":"city, village,...","countryCode":"FK","lng":"-58.03967","fcodeName":"populated place","toponymName":"Johnson Harbour Settlement","fcl":"P","name":"Johnson Harbour Settlement","fcode":"PPL","geonameId":3426945,"lat":"-51.49837","adminName1":"","population":0},{"countryId":"3474414","adminCode1":"00","countryName":"Islas Malvinas","fclName":"city, village,...","countryCode":"FK","lng":"-59.94331","fcodeName":"populated place","toponymName":"Keppel Settlement","fcl":"P","name":"Keppel Settlement","fcode":"PPL","geonameId":3473358,"lat":"-51.33121","adminName1":"","population":0},{"countryId":"3474414","adminCode1":"00","countryName":"Islas Malvinas","fclName":"city, village,...","countryCode":"FK","lng":"-58.45664","fcodeName":"populated place","toponymName":"Lively Settlement","fcl":"P","name":"Lively Settlement","fcode":"PPL","geonameId":3473341,"lat":"-51.99407","adminName1":"","population":0},{"countryId":"3474414","adminCode1":"00","countryName":"Islas Malvinas","fclName":"city, village,...","countryCode":"FK","lng":"-58.4","fcodeName":"populated place","toponymName":"Mare Harbour Rancho","fcl":"P","name":"Mare Harbour Rancho","fcode":"PPL","geonameId":3426886,"lat":"-51.9","adminName1":"","population":0},{"countryId":"3474414","adminCode1":"00","countryName":"Islas Malvinas","fclName":"city, village,...","countryCode":"FK","lng":"-59.4","fcodeName":"populated place","toponymName":"Mariquita","fcl":"P","name":"Mariquita","fcode":"PPL","geonameId":3426883,"lat":"-51.9","adminName1":"","population":0},{"countryId":"3474414","adminCode1":"00","countryName":"Islas Malvinas","fclName":"city, village,...","countryCode":"FK","lng":"-58.6","fcodeName":"populated place","toponymName":"Mid Rancho","fcl":"P","name":"Mid Rancho","fcode":"PPL","geonameId":3426871,"lat":"-51.83333","adminName1":"","population":0},{"countryId":"3474414","adminCode1":"00","countryName":"Islas Malvinas","fclName":"city, village,...","countryCode":"FK","lng":"-61.2988","fcodeName":"populated place","toponymName":"New Island Settlement","fcl":"P","name":"New Island Settlement","fcode":"PPL","geonameId":3949791,"lat":"-51.72556","adminName1":"","population":0},{"countryId":"3474414","adminCode1":"00","countryName":"Islas Malvinas","fclName":"city, village,...","countryCode":"FK","lng":"-59.36763","fcodeName":"populated place","toponymName":"North Arm Settlement","fcl":"P","name":"North Arm Settlement","fcode":"PPL","geonameId":3426842,"lat":"-52.12373","adminName1":"","population":0},{"countryId":"3474414","adminCode1":"00","countryName":"Islas Malvinas","fclName":"city, village,...","countryCode":"FK","lng":"-59.23333","fcodeName":"populated place","toponymName":"Orqueta","fcl":"P","name":"Orqueta","fcode":"PPL","geonameId":3426825,"lat":"-51.86667","adminName1":"","population":0},{"countryId":"3474414","adminCode1":"00","countryName":"Islas Malvinas","fclName":"city, village,...","countryCode":"FK","lng":"-59.6039","fcodeName":"populated place","toponymName":"Pebble Island Settlement","fcl":"P","name":"Pebble Island Settlement","fcode":"PPL","geonameId":3426816,"lat":"-51.31818","adminName1":"","population":0},{"countryId":"3474414","adminCode1":"00","countryName":"Islas Malvinas","fclName":"city, village,...","countryCode":"FK","lng":"-58.76667","fcodeName":"populated place","toponymName":"Piedra Sola","fcl":"P","name":"Piedra Sola","fcode":"PPL","geonameId":3426806,"lat":"-51.53333","adminName1":"","population":0},{"countryId":"3474414","adminCode1":"00","countryName":"Islas Malvinas","fclName":"city, village,...","countryCode":"FK","lng":"-59.52301","fcodeName":"populated place","toponymName":"Port Howard","fcl":"P","name":"Port Howard","fcode":"PPL","geonameId":3426792,"lat":"-51.6154","adminName1":"","population":41},{"countryId":"3474414","adminCode1":"00","countryName":"Islas Malvinas","fclName":"city, village,...","countryCode":"FK","lng":"-58.10896","fcodeName":"populated place","toponymName":"Port Louis Settlement","fcl":"P","name":"Port Louis Settlement","fcode":"PPL","geonameId":3426791,"lat":"-51.52368","adminName1":"","population":0},{"countryId":"3474414","adminCode1":"00","countryName":"Islas Malvinas","fclName":"city, village,...","countryCode":"FK","lng":"-58.15","fcodeName":"populated place","toponymName":"Port Louis South","fcl":"P","name":"Port Louis South","fcode":"PPL","geonameId":3426789,"lat":"-51.6","adminName1":"","population":0},{"countryId":"3474414","adminCode1":"00","countryName":"Islas Malvinas","fclName":"city, village,...","countryCode":"FK","lng":"-58.98751","fcodeName":"populated place","toponymName":"Port San Carlos Settlement","fcl":"P","name":"Port San Carlos Settlement","fcode":"PPL","geonameId":3426788,"lat":"-51.50184","adminName1":"","population":0},{"countryId":"3474414","adminCode1":"00","countryName":"Islas Malvinas","fclName":"city, village,...","countryCode":"FK","lng":"-60.84451","fcodeName":"populated place","toponymName":"Port Stephens Settlement","fcl":"P","name":"Port Stephens Settlement","fcode":"PPL","geonameId":3831828,"lat":"-52.10243","adminName1":"","population":0},{"countryId":"3474414","adminCode1":"00","countryName":"Islas Malvinas","fclName":"city, village,...","countryCode":"FK","lng":"-57.85","fcodeName":"capital of a political entity","toponymName":"Stanley","fcl":"P","name":"Puerto Argentino\/Stanley","fcode":"PPLC","geonameId":3426691,"lat":"-51.7","adminName1":"","population":2213},{"countryId":"3474414","adminCode1":"00","countryName":"Islas Malvinas","fclName":"city, village,...","countryCode":"FK","lng":"-58.30933","fcodeName":"populated place","toponymName":"Rincon Grande Settlement","fcl":"P","name":"Rincon Grande Settlement","fcode":"PPL","geonameId":3426768,"lat":"-51.46151","adminName1":"","population":0},{"countryId":"3474414","adminCode1":"00","countryName":"Islas Malvinas","fclName":"city, village,...","countryCode":"FK","lng":"-60.38558","fcodeName":"populated place","toponymName":"Roy Cove Settlement","fcl":"P","name":"Roy Cove Settlement","fcode":"PPL","geonameId":3831800,"lat":"-51.54836","adminName1":"","population":0},{"countryId":"3474414","adminCode1":"00","countryName":"Islas Malvinas","fclName":"city, village,...","countryCode":"FK","lng":"-58.37199","fcodeName":"populated place","toponymName":"Salvador Settlement","fcl":"P","name":"Salvador Settlement","fcode":"PPL","geonameId":3426731,"lat":"-51.43409","adminName1":"","population":0},{"countryId":"3474414","adminCode1":"00","countryName":"Islas Malvinas","fclName":"city, village,...","countryCode":"FK","lng":"-59.03499","fcodeName":"populated place","toponymName":"San Carlos Settlement","fcl":"P","name":"San Carlos Settlement","fcode":"PPL","geonameId":3426741,"lat":"-51.57357","adminName1":"","population":0},{"countryId":"3474414","adminCode1":"00","countryName":"Islas Malvinas","fclName":"city, village,...","countryCode":"FK","lng":"-58.75","fcodeName":"populated place","toponymName":"Sand Fountain","fcl":"P","name":"Sand Fountain","fcode":"PPL","geonameId":3426736,"lat":"-51.48333","adminName1":"","population":0},{"countryId":"3474414","adminCode1":"00","countryName":"Islas Malvinas","fclName":"city, village,...","countryCode":"FK","lng":"-60.08726","fcodeName":"populated place","toponymName":"Saunders Island Settlement","fcl":"P","name":"Saunders Island Settlement","fcode":"PPL","geonameId":3949792,"lat":"-51.36589","adminName1":"","population":0},{"countryId":"3474414","adminCode1":"00","countryName":"Islas Malvinas","fclName":"city, village,...","countryCode":"FK","lng":"-59.68825","fcodeName":"populated place","toponymName":"Speedwell Island Settlement","fcl":"P","name":"Speedwell Island Settlement","fcode":"PPL","geonameId":3473338,"lat":"-52.22074","adminName1":"","population":0},{"countryId":"3474414","adminCode1":"00","countryName":"Islas Malvinas","fclName":"city, village,...","countryCode":"FK","lng":"-60.45588","fcodeName":"populated place","toponymName":"Spring Point Settlement","fcl":"P","name":"Spring Point Settlement","fcode":"PPL","geonameId":3831765,"lat":"-51.82968","adminName1":"","population":0},{"countryId":"3474414","adminCode1":"00","countryName":"Islas Malvinas","fclName":"city, village,...","countryCode":"FK","lng":"-58.42355","fcodeName":"populated place","toponymName":"Teal Inlet Settlement","fcl":"P","name":"Teal Inlet Settlement","fcode":"PPL","geonameId":3426674,"lat":"-51.54571","adminName1":"","population":0},{"countryId":"3474414","adminCode1":"00","countryName":"Islas Malvinas","fclName":"city, village,...","countryCode":"FK","lng":"-59.09212","fcodeName":"populated place","toponymName":"Tranquilidad","fcl":"P","name":"Tranquilidad","fcode":"PPL","geonameId":3426672,"lat":"-51.81374","adminName1":"","population":0},{"countryId":"3474414","adminCode1":"00","countryName":"Islas Malvinas","fclName":"city, village,...","countryCode":"FK","lng":"-58.76667","fcodeName":"populated place","toponymName":"Walker Creek","fcl":"P","name":"Walker Creek","fcode":"PPL","geonameId":3426645,"lat":"-51.96667","adminName1":"","population":0},{"countryId":"3474414","adminCode1":"00","countryName":"Islas Malvinas","fclName":"city, village,...","countryCode":"FK","lng":"-60.90485","fcodeName":"populated place","toponymName":"Weddell Settlement","fcl":"P","name":"Weddell Settlement","fcode":"PPL","geonameId":3949790,"lat":"-51.89231","adminName1":"","population":0},{"countryId":"3474414","adminCode1":"00","countryName":"Islas Malvinas","fclName":"city, village,...","countryCode":"FK","lng":"-60.68685","fcodeName":"populated place","toponymName":"Westpoint Island Settlement","fcl":"P","name":"Westpoint Island Settlement","fcode":"PPL","geonameId":3965555,"lat":"-51.34879","adminName1":"","population":0}]}