{"abbr":"TL","name_en":"East Timor","name_es":"Timor Oriental","currency":"USD","callingCode":"670","continent":"OC","continente_name":"Ocean\u00eda","geoname_id":1966436,"province":[{"countryId":"1966436","adminCode1":"AL","countryName":"Timor Oriental","fclName":"country, state, region,...","countryCode":"TL","lng":"125.6375","fcodeName":"first-order administrative division","toponymName":"Aileu","fcl":"A","numberOfChildren":4,"name":"Aileu","fcode":"ADM1","geonameId":1651815,"lat":"-8.69167","adminName1":"Aileu","population":0},{"countryId":"1966436","adminCode1":"AN","countryName":"Timor Oriental","fclName":"country, state, region,...","countryCode":"TL","lng":"125.525","fcodeName":"first-order administrative division","toponymName":"Ainaro","fcl":"A","numberOfChildren":4,"name":"Ainaro","fcode":"ADM1","geonameId":1651809,"lat":"-9.025","adminName1":"Ainaro","population":39671},{"countryId":"1966436","adminCode1":"BA","countryName":"Timor Oriental","fclName":"country, state, region,...","countryCode":"TL","lng":"126.475","fcodeName":"first-order administrative division","toponymName":"Baucau","fcl":"A","numberOfChildren":6,"name":"Baucau","fcode":"ADM1","geonameId":1649538,"lat":"-8.54167","adminName1":"Baucau","population":0},{"countryId":"1966436","adminCode1":"BO","countryName":"Timor Oriental","fclName":"country, state, region,...","countryCode":"TL","lng":"125.21667","fcodeName":"first-order administrative division","toponymName":"Bobonaro","fcl":"A","numberOfChildren":6,"name":"Bobonaro","fcode":"ADM1","geonameId":1648513,"lat":"-8.95","adminName1":"Bobonaro","population":0},{"countryId":"1966436","adminCode1":"CO","countryName":"Timor Oriental","fclName":"country, state, region,...","countryCode":"TL","lng":"125.25","fcodeName":"first-order administrative division","toponymName":"Cova Lima","fcl":"A","numberOfChildren":7,"name":"Cova Lima","fcode":"ADM1","geonameId":1639462,"lat":"-9.26667","adminName1":"Cova Lima","population":0},{"countryId":"1966436","adminCode1":"DI","countryName":"Timor Oriental","fclName":"country, state, region,...","countryCode":"TL","lng":"125.66667","fcodeName":"first-order administrative division","toponymName":"D\u00edli","fcl":"A","numberOfChildren":7,"name":"D\u00edli","fcode":"ADM1","geonameId":1645456,"lat":"-8.55","adminName1":"D\u00edli","population":0},{"countryId":"1966436","adminCode1":"ER","countryName":"Timor Oriental","fclName":"country, state, region,...","countryCode":"TL","lng":"125.38778","fcodeName":"first-order administrative division","toponymName":"Ermera","fcl":"A","numberOfChildren":3,"name":"Ermera","fcode":"ADM1","geonameId":1644865,"lat":"-8.83028","adminName1":"Ermera","population":100000},{"countryId":"1966436","adminCode1":"LA","countryName":"Timor Oriental","fclName":"country, state, region,...","countryCode":"TL","lng":"126.97","fcodeName":"first-order administrative division","toponymName":"Laut\u00e9m","fcl":"A","numberOfChildren":5,"name":"Laut\u00e9m","fcode":"ADM1","geonameId":1638294,"lat":"-8.51472","adminName1":"Laut\u00e9m","population":0},{"countryId":"1966436","adminCode1":"LI","countryName":"Timor Oriental","fclName":"country, state, region,...","countryCode":"TL","lng":"125.31667","fcodeName":"first-order administrative division","toponymName":"Liqui\u00e7\u00e1","fcl":"A","numberOfChildren":3,"name":"Liqui\u00e7\u00e1","fcode":"ADM1","geonameId":1637729,"lat":"-8.65","adminName1":"Liqui\u00e7\u00e1","population":0},{"countryId":"1966436","adminCode1":"MT","countryName":"Timor Oriental","fclName":"country, state, region,...","countryCode":"TL","lng":"125.95","fcodeName":"first-order administrative division","toponymName":"Manatuto","fcl":"A","numberOfChildren":6,"name":"Manatuto","fcode":"ADM1","geonameId":1636525,"lat":"-8.71667","adminName1":"Manatuto","population":0},{"countryId":"1966436","adminCode1":"MF","countryName":"Timor Oriental","fclName":"country, state, region,...","countryCode":"TL","lng":"125.77778","fcodeName":"first-order administrative division","toponymName":"Manufahi","fcl":"A","numberOfChildren":4,"name":"Manufahi","fcode":"ADM1","geonameId":1636309,"lat":"-8.99861","adminName1":"Manufahi","population":0},{"countryId":"1966436","adminCode1":"OE","countryName":"Timor Oriental","fclName":"country, state, region,...","countryCode":"TL","lng":"124.29306","fcodeName":"first-order administrative division","toponymName":"Oecusse District","fcl":"A","numberOfChildren":4,"name":"Oecusse District","fcode":"ADM1","geonameId":1651539,"lat":"-9.31361","adminName1":"Oecusse District","population":57469},{"countryId":"1966436","adminCode1":"VI","countryName":"Timor Oriental","fclName":"country, state, region,...","countryCode":"TL","lng":"126.36","fcodeName":"first-order administrative division","toponymName":"Viqueque","fcl":"A","numberOfChildren":5,"name":"Viqueque","fcode":"ADM1","geonameId":1622470,"lat":"-8.78722","adminName1":"Viqueque","population":0}]}