{"abbr":"NU","name_en":"Niue","name_es":"Isla Niue","currency":"NZD","callingCode":"683","continent":"OC","continente_name":"Ocean\u00eda","geoname_id":4036232,"province":[{"countryId":"4036232","adminCode1":"00","countryName":"Isla Niue","fclName":"city, village,...","countryCode":"NU","lng":"-169.91867","fcodeName":"capital of a political entity","toponymName":"Alofi","fcl":"P","name":"Alofi","fcode":"PPLC","geonameId":4036284,"lat":"-19.05952","adminName1":"","population":624},{"countryId":"4036232","adminCode1":"00","countryName":"Isla Niue","fclName":"city, village,...","countryCode":"NU","lng":"-169.91667","fcodeName":"populated place","toponymName":"Avatele","fcl":"P","name":"Avatele","fcode":"PPL","geonameId":4036279,"lat":"-19.1","adminName1":"","population":150},{"countryId":"4036232","adminCode1":"00","countryName":"Isla Niue","fclName":"city, village,...","countryCode":"NU","lng":"-169.9","fcodeName":"populated place","toponymName":"Fatiau","fcl":"P","name":"Fatiau","fcode":"PPL","geonameId":4036274,"lat":"-19.11667","adminName1":"","population":60},{"countryId":"4036232","adminCode1":"00","countryName":"Isla Niue","fclName":"city, village,...","countryCode":"NU","lng":"-169.83333","fcodeName":"populated place","toponymName":"Hakupu","fcl":"P","name":"Hakupu","fcode":"PPL","geonameId":4036268,"lat":"-19.1","adminName1":"","population":221},{"countryId":"4036232","adminCode1":"00","countryName":"Isla Niue","fclName":"city, village,...","countryCode":"NU","lng":"-169.88333","fcodeName":"populated place","toponymName":"Hikutivake","fcl":"P","name":"Hikutivake","fcode":"PPL","geonameId":4036267,"lat":"-18.93333","adminName1":"","population":63},{"countryId":"4036232","adminCode1":"00","countryName":"Isla Niue","fclName":"city, village,...","countryCode":"NU","lng":"-169.8","fcodeName":"populated place","toponymName":"Huvalu","fcl":"P","name":"Huvalu","fcode":"PPL","geonameId":4036265,"lat":"-19.06667","adminName1":"","population":0},{"countryId":"4036232","adminCode1":"00","countryName":"Isla Niue","fclName":"city, village,...","countryCode":"NU","lng":"-169.8","fcodeName":"populated place","toponymName":"Lakepa","fcl":"P","name":"Lakepa","fcode":"PPL","geonameId":4036261,"lat":"-18.98333","adminName1":"","population":88},{"countryId":"4036232","adminCode1":"00","countryName":"Isla Niue","fclName":"city, village,...","countryCode":"NU","lng":"-169.8","fcodeName":"populated place","toponymName":"Liha","fcl":"P","name":"Liha","fcode":"PPL","geonameId":4036256,"lat":"-18.95","adminName1":"","population":0},{"countryId":"4036232","adminCode1":"00","countryName":"Isla Niue","fclName":"city, village,...","countryCode":"NU","lng":"-169.78333","fcodeName":"populated place","toponymName":"Liku","fcl":"P","name":"Liku","fcode":"PPL","geonameId":4036255,"lat":"-19.03333","adminName1":"","population":71},{"countryId":"4036232","adminCode1":"00","countryName":"Isla Niue","fclName":"city, village,...","countryCode":"NU","lng":"-169.91667","fcodeName":"populated place","toponymName":"Makefu","fcl":"P","name":"Makefu","fcode":"PPL","geonameId":4036247,"lat":"-18.98333","adminName1":"","population":87},{"countryId":"4036232","adminCode1":"00","countryName":"Isla Niue","fclName":"city, village,...","countryCode":"NU","lng":"-169.9","fcodeName":"populated place","toponymName":"Mamakula","fcl":"P","name":"Mamakula","fcode":"PPL","geonameId":4036246,"lat":"-18.95","adminName1":"","population":14},{"countryId":"4036232","adminCode1":"00","countryName":"Isla Niue","fclName":"city, village,...","countryCode":"NU","lng":"-169.9","fcodeName":"populated place","toponymName":"Matalave","fcl":"P","name":"Matalave","fcode":"PPL","geonameId":4036242,"lat":"-18.95","adminName1":"","population":0},{"countryId":"4036232","adminCode1":"00","countryName":"Isla Niue","fclName":"city, village,...","countryCode":"NU","lng":"-169.83333","fcodeName":"populated place","toponymName":"Mutalau","fcl":"P","name":"Mutalau","fcode":"PPL","geonameId":4036234,"lat":"-18.93333","adminName1":"","population":133},{"countryId":"4036232","adminCode1":"00","countryName":"Isla Niue","fclName":"city, village,...","countryCode":"NU","lng":"-169.88333","fcodeName":"populated place","toponymName":"Taoli","fcl":"P","name":"Taoli","fcode":"PPL","geonameId":4036222,"lat":"-19.1","adminName1":"","population":0},{"countryId":"4036232","adminCode1":"00","countryName":"Isla Niue","fclName":"city, village,...","countryCode":"NU","lng":"-169.9","fcodeName":"populated place","toponymName":"Tuapa","fcl":"P","name":"Tuapa","fcode":"PPL","geonameId":4036212,"lat":"-18.95","adminName1":"","population":129}]}