{"abbr":"JP","name_en":"Japan","name_es":"Jap\u00f3n","currency":"JPY","callingCode":"81","continent":"AS","continente_name":"Asia","geoname_id":1861060,"province":[{"countryId":"1861060","adminCode1":"01","countryName":"Jap\u00f3n","fclName":"country, state, region,...","countryCode":"JP","lng":"136.90656","fcodeName":"first-order administrative division","toponymName":"Aichi-ken","fcl":"A","numberOfChildren":42,"name":"Aichi-ken","fcode":"ADM1","geonameId":1865694,"lat":"35.18017","adminName1":"Aichi","population":0},{"countryId":"1861060","adminCode1":"02","countryName":"Jap\u00f3n","fclName":"country, state, region,...","countryCode":"JP","lng":"140.40538","fcodeName":"first-order administrative division","toponymName":"Akita-ken","fcl":"A","numberOfChildren":15,"name":"Akita-ken","fcode":"ADM1","geonameId":2113124,"lat":"39.75251","adminName1":"Akita","population":0},{"countryId":"1861060","adminCode1":"04","countryName":"Jap\u00f3n","fclName":"country, state, region,...","countryCode":"JP","lng":"140.12333","fcodeName":"first-order administrative division","toponymName":"Chiba-ken","fcl":"A","numberOfChildren":31,"name":"Chiba-ken","fcode":"ADM1","geonameId":2113014,"lat":"35.60506","adminName1":"Chiba","population":0},{"countryId":"1861060","adminCode1":"05","countryName":"Jap\u00f3n","fclName":"country, state, region,...","countryCode":"JP","lng":"132.85472","fcodeName":"first-order administrative division","toponymName":"Ehime-ken","fcl":"A","numberOfChildren":19,"name":"Ehime-ken","fcode":"ADM1","geonameId":1864226,"lat":"33.6258","adminName1":"Ehime-ken","population":1476750},{"countryId":"1861060","adminCode1":"06","countryName":"Jap\u00f3n","fclName":"country, state, region,...","countryCode":"JP","lng":"136.22517","fcodeName":"first-order administrative division","toponymName":"Fukui-ken","fcl":"A","numberOfChildren":13,"name":"Fukui-ken","fcode":"ADM1","geonameId":1863983,"lat":"35.8501","adminName1":"Fukui","population":0},{"countryId":"1861060","adminCode1":"07","countryName":"Jap\u00f3n","fclName":"country, state, region,...","countryCode":"JP","lng":"130.66472","fcodeName":"first-order administrative division","toponymName":"Fukuoka-ken","fcl":"A","numberOfChildren":37,"name":"Fukuoka-ken","fcode":"ADM1","geonameId":1863958,"lat":"33.52813","adminName1":"Fukuoka","population":0},{"countryId":"1861060","adminCode1":"08","countryName":"Jap\u00f3n","fclName":"country, state, region,...","countryCode":"JP","lng":"140.22199","fcodeName":"first-order administrative division","toponymName":"Fukushima-ken","fcl":"A","numberOfChildren":19,"name":"Fukushima-ken","fcode":"ADM1","geonameId":2112922,"lat":"37.38158","adminName1":"Fukushima","population":0},{"countryId":"1861060","adminCode1":"09","countryName":"Jap\u00f3n","fclName":"country, state, region,...","countryCode":"JP","lng":"137.05398","fcodeName":"first-order administrative division","toponymName":"Gifu-ken","fcl":"A","numberOfChildren":25,"name":"Gifu-ken","fcode":"ADM1","geonameId":1863640,"lat":"35.78091","adminName1":"Gifu","population":0},{"countryId":"1861060","adminCode1":"11","countryName":"Jap\u00f3n","fclName":"country, state, region,...","countryCode":"JP","lng":"132.78543","fcodeName":"first-order administrative division","toponymName":"Hiroshima","fcl":"A","numberOfChildren":15,"name":"Hiroshima","fcode":"ADM1","geonameId":1862413,"lat":"34.60673","adminName1":"Hiroshima","population":0},{"countryId":"1861060","adminCode1":"12","countryName":"Jap\u00f3n","fclName":"country, state, region,...","countryCode":"JP","lng":"141.3466","fcodeName":"first-order administrative division","toponymName":"Hokkaid\u014d","fcl":"A","numberOfChildren":92,"name":"Hokkaid\u014d","fcode":"ADM1","geonameId":2130037,"lat":"43.06451","adminName1":"Hokkaid\u014d","population":5647230},{"countryId":"1861060","adminCode1":"13","countryName":"Jap\u00f3n","fclName":"country, state, region,...","countryCode":"JP","lng":"134.82597","fcodeName":"first-order administrative division","toponymName":"Hy\u014dgo-ken","fcl":"A","numberOfChildren":33,"name":"Hy\u014dgo-ken","fcode":"ADM1","geonameId":1862047,"lat":"35.04032","adminName1":"Hy\u014dgo","population":0},{"countryId":"1861060","adminCode1":"14","countryName":"Jap\u00f3n","fclName":"country, state, region,...","countryCode":"JP","lng":"140.31615","fcodeName":"first-order administrative division","toponymName":"Ibaraki-ken","fcl":"A","numberOfChildren":33,"name":"Ibaraki-ken","fcode":"ADM1","geonameId":2112669,"lat":"36.31035","adminName1":"Ibaraki","population":0},{"countryId":"1861060","adminCode1":"15","countryName":"Jap\u00f3n","fclName":"country, state, region,...","countryCode":"JP","lng":"136.7705","fcodeName":"first-order administrative division","toponymName":"Ishikawa-ken","fcl":"A","numberOfChildren":16,"name":"Ishikawa-ken","fcode":"ADM1","geonameId":1861387,"lat":"36.77145","adminName1":"Ishikawa","population":0},{"countryId":"1861060","adminCode1":"16","countryName":"Jap\u00f3n","fclName":"country, state, region,...","countryCode":"JP","lng":"141.35971","fcodeName":"first-order administrative division","toponymName":"Iwate-ken","fcl":"A","numberOfChildren":21,"name":"Iwate-ken","fcode":"ADM1","geonameId":2112518,"lat":"39.59601","adminName1":"Iwate","population":0},{"countryId":"1861060","adminCode1":"17","countryName":"Jap\u00f3n","fclName":"country, state, region,...","countryCode":"JP","lng":"133.99471","fcodeName":"first-order administrative division","toponymName":"Kagawa-ken","fcl":"A","numberOfChildren":11,"name":"Kagawa-ken","fcode":"ADM1","geonameId":1860834,"lat":"34.24717","adminName1":"Kagawa","population":0},{"countryId":"1861060","adminCode1":"18","countryName":"Jap\u00f3n","fclName":"country, state, region,...","countryCode":"JP","lng":"130.43292","fcodeName":"first-order administrative division","toponymName":"Kagoshima","fcl":"A","numberOfChildren":23,"name":"Kagoshima","fcode":"ADM1","geonameId":1860825,"lat":"31.03225","adminName1":"Kagoshima","population":0},{"countryId":"1861060","adminCode1":"19","countryName":"Jap\u00f3n","fclName":"country, state, region,...","countryCode":"JP","lng":"139.33885","fcodeName":"first-order administrative division","toponymName":"Kanagawa-ken","fcl":"A","numberOfChildren":21,"name":"Kanagawa-ken","fcode":"ADM1","geonameId":1860291,"lat":"35.41746","adminName1":"Kanagawa","population":0},{"countryId":"1861060","adminCode1":"21","countryName":"Jap\u00f3n","fclName":"country, state, region,...","countryCode":"JP","lng":"130.7543","fcodeName":"first-order administrative division","toponymName":"Kumamoto-ken","fcl":"A","numberOfChildren":22,"name":"Kumamoto-ken","fcode":"ADM1","geonameId":1858419,"lat":"32.62049","adminName1":"Kumamoto-ken","population":1812255},{"countryId":"1861060","adminCode1":"22","countryName":"Jap\u00f3n","fclName":"country, state, region,...","countryCode":"JP","lng":"135.44118","fcodeName":"first-order administrative division","toponymName":"Ky\u014dto-fu","fcl":"A","numberOfChildren":21,"name":"Ky\u014dto-fu","fcode":"ADM1","geonameId":1857907,"lat":"35.25432","adminName1":"Ky\u014dto","population":0},{"countryId":"1861060","adminCode1":"20","countryName":"Jap\u00f3n","fclName":"country, state, region,...","countryCode":"JP","lng":"133.36401","fcodeName":"first-order administrative division","toponymName":"K\u014dchi-ken","fcl":"A","numberOfChildren":14,"name":"K\u014dchi-ken","fcode":"ADM1","geonameId":1859133,"lat":"33.42801","adminName1":"K\u014dchi","population":0},{"countryId":"1861060","adminCode1":"23","countryName":"Jap\u00f3n","fclName":"country, state, region,...","countryCode":"JP","lng":"136.38296","fcodeName":"first-order administrative division","toponymName":"Mie-ken","fcl":"A","numberOfChildren":19,"name":"Mie-ken","fcode":"ADM1","geonameId":1857352,"lat":"34.52123","adminName1":"Mie","population":0},{"countryId":"1861060","adminCode1":"24","countryName":"Jap\u00f3n","fclName":"country, state, region,...","countryCode":"JP","lng":"140.92624","fcodeName":"first-order administrative division","toponymName":"Miyagi-ken","fcl":"A","numberOfChildren":22,"name":"Miyagi-ken","fcode":"ADM1","geonameId":2111888,"lat":"38.44938","adminName1":"Miyagi","population":0},{"countryId":"1861060","adminCode1":"25","countryName":"Jap\u00f3n","fclName":"country, state, region,...","countryCode":"JP","lng":"131.29762","fcodeName":"first-order administrative division","toponymName":"Miyazaki-ken","fcl":"A","numberOfChildren":16,"name":"Miyazaki-ken","fcode":"ADM1","geonameId":1856710,"lat":"32.19807","adminName1":"Miyazaki","population":0},{"countryId":"1861060","adminCode1":"26","countryName":"Jap\u00f3n","fclName":"country, state, region,...","countryCode":"JP","lng":"138.04077","fcodeName":"first-order administrative division","toponymName":"Nagano-ken","fcl":"A","numberOfChildren":29,"name":"Nagano-ken","fcode":"ADM1","geonameId":1856210,"lat":"36.13464","adminName1":"Nagano","population":0},{"countryId":"1861060","adminCode1":"27","countryName":"Jap\u00f3n","fclName":"country, state, region,...","countryCode":"JP","lng":"129.61108","fcodeName":"first-order administrative division","toponymName":"Nagasaki-ken","fcl":"A","numberOfChildren":17,"name":"Nagasaki-ken","fcode":"ADM1","geonameId":1856156,"lat":"33.23344","adminName1":"Nagasaki","population":0},{"countryId":"1861060","adminCode1":"28","countryName":"Jap\u00f3n","fclName":"country, state, region,...","countryCode":"JP","lng":"135.83289","fcodeName":"first-order administrative division","toponymName":"Nara-ken","fcl":"A","numberOfChildren":14,"name":"Nara-ken","fcode":"ADM1","geonameId":1855608,"lat":"34.68525","adminName1":"Nara-ken","population":0},{"countryId":"1861060","adminCode1":"29","countryName":"Jap\u00f3n","fclName":"country, state, region,...","countryCode":"JP","lng":"138.91748","fcodeName":"first-order administrative division","toponymName":"Niigata-ken","fcl":"A","numberOfChildren":25,"name":"Niigata-ken","fcode":"ADM1","geonameId":1855429,"lat":"37.52343","adminName1":"Niigata","population":0},{"countryId":"1861060","adminCode1":"31","countryName":"Jap\u00f3n","fclName":"country, state, region,...","countryCode":"JP","lng":"133.81018","fcodeName":"first-order administrative division","toponymName":"Okayama-ken","fcl":"A","numberOfChildren":23,"name":"Okayama-ken","fcode":"ADM1","geonameId":1854381,"lat":"34.90204","adminName1":"Okayama","population":0},{"countryId":"1861060","adminCode1":"47","countryName":"Jap\u00f3n","fclName":"country, state, region,...","countryCode":"JP","lng":"126.66871","fcodeName":"first-order administrative division","toponymName":"Okinawa-ken","fcl":"A","numberOfChildren":12,"name":"Okinawa-ken","fcode":"ADM1","geonameId":1854345,"lat":"25.77225","adminName1":"Okinawa","population":0},{"countryId":"1861060","adminCode1":"03","countryName":"Jap\u00f3n","fclName":"country, state, region,...","countryCode":"JP","lng":"140.82828","fcodeName":"first-order administrative division","toponymName":"Aomori","fcl":"A","numberOfChildren":18,"name":"Prefectura de Aomori","fcode":"ADM1","geonameId":2130656,"lat":"40.7831","adminName1":"Prefectura de Aomori","population":1373164},{"countryId":"1861060","adminCode1":"10","countryName":"Jap\u00f3n","fclName":"country, state, region,...","countryCode":"JP","lng":"138.98235","fcodeName":"first-order administrative division","toponymName":"Gunma","fcl":"A","numberOfChildren":17,"name":"Prefectura de Gunma","fcode":"ADM1","geonameId":1863501,"lat":"36.50747","adminName1":"Prefectura de Gunma","population":2014608},{"countryId":"1861060","adminCode1":"36","countryName":"Jap\u00f3n","fclName":"country, state, region,...","countryCode":"JP","lng":"132.56111","fcodeName":"first-order administrative division","toponymName":"Shimane","fcl":"A","numberOfChildren":15,"name":"Prefectura de Shimane","fcode":"ADM1","geonameId":1852442,"lat":"35.07693","adminName1":"Prefectura de Shimane","population":712336},{"countryId":"1861060","adminCode1":"33","countryName":"Jap\u00f3n","fclName":"country, state, region,...","countryCode":"JP","lng":"130.11491","fcodeName":"first-order administrative division","toponymName":"Saga-ken","fcl":"A","numberOfChildren":15,"name":"Saga-ken","fcode":"ADM1","geonameId":1853299,"lat":"33.28904","adminName1":"Saga","population":0},{"countryId":"1861060","adminCode1":"34","countryName":"Jap\u00f3n","fclName":"country, state, region,...","countryCode":"JP","lng":"139.64904","fcodeName":"first-order administrative division","toponymName":"Saitama-ken","fcl":"A","numberOfChildren":39,"name":"Saitama-ken","fcode":"ADM1","geonameId":1853226,"lat":"35.85721","adminName1":"Saitama","population":0},{"countryId":"1861060","adminCode1":"35","countryName":"Jap\u00f3n","fclName":"country, state, region,...","countryCode":"JP","lng":"136.13652","fcodeName":"first-order administrative division","toponymName":"Shiga-ken","fcl":"A","numberOfChildren":11,"name":"Shiga-ken","fcode":"ADM1","geonameId":1852553,"lat":"35.21939","adminName1":"Shiga","population":0},{"countryId":"1861060","adminCode1":"37","countryName":"Jap\u00f3n","fclName":"country, state, region,...","countryCode":"JP","lng":"138.32542","fcodeName":"first-order administrative division","toponymName":"Shizuoka-ken","fcl":"A","numberOfChildren":26,"name":"Shizuoka-ken","fcode":"ADM1","geonameId":1851715,"lat":"35.02522","adminName1":"Shizuoka","population":0},{"countryId":"1861060","adminCode1":"38","countryName":"Jap\u00f3n","fclName":"country, state, region,...","countryCode":"JP","lng":"139.81613","fcodeName":"first-order administrative division","toponymName":"Tochigi-ken","fcl":"A","numberOfChildren":17,"name":"Tochigi-ken","fcode":"ADM1","geonameId":1850310,"lat":"36.69259","adminName1":"Tochigi","population":2017548},{"countryId":"1861060","adminCode1":"39","countryName":"Jap\u00f3n","fclName":"country, state, region,...","countryCode":"JP","lng":"134.23682","fcodeName":"first-order administrative division","toponymName":"Tokushima","fcl":"A","numberOfChildren":17,"name":"Tokushima","fcode":"ADM1","geonameId":1850157,"lat":"33.92176","adminName1":"Tokushima","population":0},{"countryId":"1861060","adminCode1":"41","countryName":"Jap\u00f3n","fclName":"country, state, region,...","countryCode":"JP","lng":"133.85081","fcodeName":"first-order administrative division","toponymName":"Tottori-ken","fcl":"A","numberOfChildren":8,"name":"Tottori-ken","fcode":"ADM1","geonameId":1849890,"lat":"35.36786","adminName1":"Tottori","population":0},{"countryId":"1861060","adminCode1":"42","countryName":"Jap\u00f3n","fclName":"country, state, region,...","countryCode":"JP","lng":"137.26513","fcodeName":"first-order administrative division","toponymName":"Toyama-ken","fcl":"A","numberOfChildren":11,"name":"Toyama-ken","fcode":"ADM1","geonameId":1849872,"lat":"36.63926","adminName1":"Toyama","population":0},{"countryId":"1861060","adminCode1":"40","countryName":"Jap\u00f3n","fclName":"country, state, region,...","countryCode":"JP","lng":"139.69171","fcodeName":"first-order administrative division","toponymName":"T\u014dky\u014d-to","fcl":"A","numberOfChildren":46,"name":"T\u014dky\u014d-to","fcode":"ADM1","geonameId":1850144,"lat":"35.6895","adminName1":"T\u014dky\u014d","population":12445327},{"countryId":"1861060","adminCode1":"43","countryName":"Jap\u00f3n","fclName":"country, state, region,...","countryCode":"JP","lng":"135.51112","fcodeName":"first-order administrative division","toponymName":"Wakayama-ken","fcl":"A","numberOfChildren":15,"name":"Wakayama-ken","fcode":"ADM1","geonameId":1848938,"lat":"33.91458","adminName1":"Wakayama","population":0},{"countryId":"1861060","adminCode1":"44","countryName":"Jap\u00f3n","fclName":"country, state, region,...","countryCode":"JP","lng":"140.0997","fcodeName":"first-order administrative division","toponymName":"Yamagata-ken","fcl":"A","numberOfChildren":16,"name":"Yamagata-ken","fcode":"ADM1","geonameId":2110554,"lat":"38.4503","adminName1":"Yamagata","population":0},{"countryId":"1861060","adminCode1":"45","countryName":"Jap\u00f3n","fclName":"country, state, region,...","countryCode":"JP","lng":"131.57046","fcodeName":"first-order administrative division","toponymName":"Yamaguchi-ken","fcl":"A","numberOfChildren":15,"name":"Yamaguchi-ken","fcode":"ADM1","geonameId":1848681,"lat":"34.20608","adminName1":"Yamaguchi","population":0},{"countryId":"1861060","adminCode1":"46","countryName":"Jap\u00f3n","fclName":"country, state, region,...","countryCode":"JP","lng":"138.608","fcodeName":"first-order administrative division","toponymName":"Yamanashi-ken","fcl":"A","numberOfChildren":16,"name":"Yamanashi-ken","fcode":"ADM1","geonameId":1848649,"lat":"35.61602","adminName1":"Yamanashi","population":0},{"countryId":"1861060","adminCode1":"30","countryName":"Jap\u00f3n","fclName":"country, state, region,...","countryCode":"JP","lng":"131.43353","fcodeName":"first-order administrative division","toponymName":"\u014cita-ken","fcl":"A","numberOfChildren":14,"name":"\u014cita-ken","fcode":"ADM1","geonameId":1854484,"lat":"33.19899","adminName1":"\u014cita","population":0},{"countryId":"1861060","adminCode1":"32","countryName":"Jap\u00f3n","fclName":"country, state, region,...","countryCode":"JP","lng":"135.51968","fcodeName":"first-order administrative division","toponymName":"\u014csaka-fu","fcl":"A","numberOfChildren":36,"name":"\u014csaka-fu","fcode":"ADM1","geonameId":1853904,"lat":"34.68631","adminName1":"\u014csaka","population":0}]}