{"abbr":"MK","name_en":"Macedonia","name_es":"Macedonia","currency":"MKD","callingCode":"389","continent":"EU","continente_name":"Europa","geoname_id":718075,"province":[{"countryId":"718075","adminCode1":"F3","countryName":"Macedonia","fclName":"country, state, region,...","countryCode":"MK","lng":"21.45944","fcodeName":"first-order administrative division","toponymName":"Aerodrom","fcl":"A","name":"Aerodrom","fcode":"ADM1","geonameId":7056266,"lat":"41.98806","adminName1":"Aerodrom","population":0},{"countryId":"718075","adminCode1":"04","countryName":"Macedonia","fclName":"country, state, region,...","countryCode":"MK","lng":"22.81667","fcodeName":"first-order administrative division","toponymName":"Berovo","fcl":"A","name":"Berovo","fcode":"ADM1","geonameId":863485,"lat":"41.65","adminName1":"Berovo","population":13181},{"countryId":"718075","adminCode1":"06","countryName":"Macedonia","fclName":"country, state, region,...","countryCode":"MK","lng":"21.31667","fcodeName":"first-order administrative division","toponymName":"Bitola","fcl":"A","name":"Bitola","fcode":"ADM1","geonameId":863486,"lat":"41.01667","adminName1":"Bitola","population":92905},{"countryId":"718075","adminCode1":"08","countryName":"Macedonia","fclName":"country, state, region,...","countryCode":"MK","lng":"22.6","fcodeName":"first-order administrative division","toponymName":"Bogdanci","fcl":"A","name":"Bogdanci","fcode":"ADM1","geonameId":862950,"lat":"41.2","adminName1":"Bogdanci","population":8352},{"countryId":"718075","adminCode1":"C7","countryName":"Macedonia","fclName":"country, state, region,...","countryCode":"MK","lng":"20.88222","fcodeName":"first-order administrative division","toponymName":"Bogovinje","fcl":"A","name":"Bogovinje","fcode":"ADM1","geonameId":863834,"lat":"41.95028","adminName1":"Bogovinje","population":30427},{"countryId":"718075","adminCode1":"11","countryName":"Macedonia","fclName":"country, state, region,...","countryCode":"MK","lng":"22.78333","fcodeName":"first-order administrative division","toponymName":"Bosilovo","fcl":"A","name":"Bosilovo","fcode":"ADM1","geonameId":862946,"lat":"41.46667","adminName1":"Bosilovo","population":14101},{"countryId":"718075","adminCode1":"12","countryName":"Macedonia","fclName":"country, state, region,...","countryCode":"MK","lng":"21.03333","fcodeName":"first-order administrative division","toponymName":"Brvenica","fcl":"A","name":"Brvenica","fcode":"ADM1","geonameId":863835,"lat":"41.88333","adminName1":"Brvenica","population":16464},{"countryId":"718075","adminCode1":"F4","countryName":"Macedonia","fclName":"country, state, region,...","countryCode":"MK","lng":"21.46889","fcodeName":"first-order administrative division","toponymName":"Butel","fcl":"A","name":"Butel","fcode":"ADM1","geonameId":7056269,"lat":"42.08194","adminName1":"Butel","population":0},{"countryId":"718075","adminCode1":"D2","countryName":"Macedonia","fclName":"country, state, region,...","countryCode":"MK","lng":"20.58444","fcodeName":"first-order administrative division","toponymName":"Debar","fcl":"A","name":"Debar","fcode":"ADM1","geonameId":863843,"lat":"41.5325","adminName1":"Debar","population":20483},{"countryId":"718075","adminCode1":"F5","countryName":"Macedonia","fclName":"country, state, region,...","countryCode":"MK","lng":"20.82222","fcodeName":"first-order administrative division","toponymName":"Debarca","fcl":"A","name":"Debarca","fcode":"ADM1","geonameId":7056271,"lat":"41.33417","adminName1":"Debarca","population":4244},{"countryId":"718075","adminCode1":"D3","countryName":"Macedonia","fclName":"country, state, region,...","countryCode":"MK","lng":"21.14389","fcodeName":"first-order administrative division","toponymName":"Demir Hisar","fcl":"A","name":"Demir Hisar","fcode":"ADM1","geonameId":863846,"lat":"41.28083","adminName1":"Demir Hisar","population":8609},{"countryId":"718075","adminCode1":"25","countryName":"Macedonia","fclName":"country, state, region,...","countryCode":"MK","lng":"22.25","fcodeName":"first-order administrative division","toponymName":"Demir Kapija","fcl":"A","name":"Demir Kapija","fcode":"ADM1","geonameId":862961,"lat":"41.38333","adminName1":"Demir Kapija","population":4115},{"countryId":"718075","adminCode1":"28","countryName":"Macedonia","fclName":"country, state, region,...","countryCode":"MK","lng":"21.43333","fcodeName":"first-order administrative division","toponymName":"Dolneni","fcl":"A","name":"Dolneni","fcode":"ADM1","geonameId":863849,"lat":"41.48333","adminName1":"Dolneni","population":13934},{"countryId":"718075","adminCode1":"30","countryName":"Macedonia","fclName":"country, state, region,...","countryCode":"MK","lng":"20.91667","fcodeName":"first-order administrative division","toponymName":"Drugovo","fcl":"A","name":"Drugovo","fcode":"ADM1","geonameId":863851,"lat":"41.46667","adminName1":"Drugovo","population":2961},{"countryId":"718075","adminCode1":"32","countryName":"Macedonia","fclName":"country, state, region,...","countryCode":"MK","lng":"21.51667","fcodeName":"first-order administrative division","toponymName":"Gazi Baba","fcl":"A","name":"Gazi Baba","fcode":"ADM1","geonameId":863853,"lat":"42.05","adminName1":"Gazi Baba","population":76182},{"countryId":"718075","adminCode1":"33","countryName":"Macedonia","fclName":"country, state, region,...","countryCode":"MK","lng":"22.4","fcodeName":"first-order administrative division","toponymName":"Gevgelija","fcl":"A","name":"Gevgelija","fcode":"ADM1","geonameId":863854,"lat":"41.2","adminName1":"Gevgelija","population":22846},{"countryId":"718075","adminCode1":"D4","countryName":"Macedonia","fclName":"country, state, region,...","countryCode":"MK","lng":"20.83222","fcodeName":"first-order administrative division","toponymName":"Gostivar","fcl":"A","name":"Gostivar","fcode":"ADM1","geonameId":863855,"lat":"41.79306","adminName1":"Gostivar","population":83018},{"countryId":"718075","adminCode1":"35","countryName":"Macedonia","fclName":"country, state, region,...","countryCode":"MK","lng":"21.91667","fcodeName":"first-order administrative division","toponymName":"Gradsko","fcl":"A","name":"Gradsko","fcode":"ADM1","geonameId":862974,"lat":"41.6","adminName1":"Gradsko","population":3584},{"countryId":"718075","adminCode1":"36","countryName":"Macedonia","fclName":"country, state, region,...","countryCode":"MK","lng":"21.63333","fcodeName":"first-order administrative division","toponymName":"Ilinden","fcl":"A","name":"Ilinden","fcode":"ADM1","geonameId":863856,"lat":"42","adminName1":"Ilinden","population":16710},{"countryId":"718075","adminCode1":"D5","countryName":"Macedonia","fclName":"country, state, region,...","countryCode":"MK","lng":"21.14528","fcodeName":"first-order administrative division","toponymName":"Jegunovce","fcl":"A","name":"Jegunovce","fcode":"ADM1","geonameId":863858,"lat":"42.11306","adminName1":"Jegunovce","population":10806},{"countryId":"718075","adminCode1":"40","countryName":"Macedonia","fclName":"country, state, region,...","countryCode":"MK","lng":"22.28333","fcodeName":"first-order administrative division","toponymName":"Karbinci","fcl":"A","name":"Karbinci","fcode":"ADM1","geonameId":862960,"lat":"41.8","adminName1":"Karbinci","population":4040},{"countryId":"718075","adminCode1":"D6","countryName":"Macedonia","fclName":"country, state, region,...","countryCode":"MK","lng":"22.00139","fcodeName":"first-order administrative division","toponymName":"Kavadarci","fcl":"A","name":"Kavadarci","fcode":"ADM1","geonameId":863861,"lat":"41.285","adminName1":"Kavadarci","population":38968},{"countryId":"718075","adminCode1":"44","countryName":"Macedonia","fclName":"country, state, region,...","countryCode":"MK","lng":"21.51667","fcodeName":"first-order administrative division","toponymName":"Kisela Voda","fcl":"A","name":"Kisela Voda","fcode":"ADM1","geonameId":863863,"lat":"41.95","adminName1":"Kisela Voda","population":0},{"countryId":"718075","adminCode1":"51","countryName":"Macedonia","fclName":"country, state, region,...","countryCode":"MK","lng":"22.16667","fcodeName":"first-order administrative division","toponymName":"Kratovo","fcl":"A","name":"Kratovo","fcode":"ADM1","geonameId":789090,"lat":"42.08333","adminName1":"Kratovo","population":9695},{"countryId":"718075","adminCode1":"52","countryName":"Macedonia","fclName":"country, state, region,...","countryCode":"MK","lng":"22.33333","fcodeName":"first-order administrative division","toponymName":"Kriva Palanka","fcl":"A","name":"Kriva Palanka","fcode":"ADM1","geonameId":863869,"lat":"42.25","adminName1":"Kriva Palanka","population":20257},{"countryId":"718075","adminCode1":"D7","countryName":"Macedonia","fclName":"country, state, region,...","countryCode":"MK","lng":"21.77278","fcodeName":"first-order administrative division","toponymName":"Kumanovo","fcl":"A","name":"Kumanovo","fcode":"ADM1","geonameId":863873,"lat":"42.08944","adminName1":"Kumanovo","population":108048},{"countryId":"718075","adminCode1":"60","countryName":"Macedonia","fclName":"country, state, region,...","countryCode":"MK","lng":"21.93333","fcodeName":"first-order administrative division","toponymName":"Lozovo","fcl":"A","name":"Lozovo","fcode":"ADM1","geonameId":862975,"lat":"41.75","adminName1":"Lozovo","population":2621},{"countryId":"718075","adminCode1":"62","countryName":"Macedonia","fclName":"country, state, region,...","countryCode":"MK","lng":"22.58333","fcodeName":"first-order administrative division","toponymName":"Makedonska Kamenica","fcl":"A","name":"Makedonska Kamenica","fcode":"ADM1","geonameId":862956,"lat":"42.05","adminName1":"Makedonska Kamenica","population":7729},{"countryId":"718075","adminCode1":"D8","countryName":"Macedonia","fclName":"country, state, region,...","countryCode":"MK","lng":"21.23333","fcodeName":"first-order administrative division","toponymName":"Makedonski Brod","fcl":"A","name":"Makedonski Brod","fcode":"ADM1","geonameId":863877,"lat":"41.65556","adminName1":"Makedonski Brod","population":6440},{"countryId":"718075","adminCode1":"D9","countryName":"Macedonia","fclName":"country, state, region,...","countryCode":"MK","lng":"21.43556","fcodeName":"first-order administrative division","toponymName":"Mogila","fcl":"A","name":"Mogila","fcode":"ADM1","geonameId":863488,"lat":"41.15806","adminName1":"Mogila","population":6421},{"countryId":"718075","adminCode1":"69","countryName":"Macedonia","fclName":"country, state, region,...","countryCode":"MK","lng":"22.15","fcodeName":"first-order administrative division","toponymName":"Negotino","fcl":"A","name":"Negotino","fcode":"ADM1","geonameId":863881,"lat":"41.51667","adminName1":"Negotino","population":19414},{"countryId":"718075","adminCode1":"E1","countryName":"Macedonia","fclName":"country, state, region,...","countryCode":"MK","lng":"21.6675","fcodeName":"first-order administrative division","toponymName":"Novaci","fcl":"A","name":"Novaci","fcode":"ADM1","geonameId":863468,"lat":"41.01944","adminName1":"Novaci","population":3268},{"countryId":"718075","adminCode1":"72","countryName":"Macedonia","fclName":"country, state, region,...","countryCode":"MK","lng":"22.9","fcodeName":"first-order administrative division","toponymName":"Novo Selo","fcl":"A","name":"Novo Selo","fcode":"ADM1","geonameId":862945,"lat":"41.41667","adminName1":"Novo Selo","population":10985},{"countryId":"718075","adminCode1":"E2","countryName":"Macedonia","fclName":"country, state, region,...","countryCode":"MK","lng":"20.87028","fcodeName":"first-order administrative division","toponymName":"Ohrid","fcl":"A","name":"Ohrid","fcode":"ADM1","geonameId":863883,"lat":"41.13083","adminName1":"Ohrid","population":53006},{"countryId":"718075","adminCode1":"29","countryName":"Macedonia","fclName":"country, state, region,...","countryCode":"MK","lng":"21.31927","fcodeName":"first-order administrative division","toponymName":"Opstina Gjorce Petrov","fcl":"A","name":"Opstina Gjorce Petrov","fcode":"ADM1","geonameId":863850,"lat":"42.06086","adminName1":"Opstina Gjorce Petrov","population":42016},{"countryId":"718075","adminCode1":"01","countryName":"Macedonia","fclName":"country, state, region,...","countryCode":"MK","lng":"21.58333","fcodeName":"first-order administrative division","toponymName":"Op\u0161tina Ara\u010dinovo","fcl":"A","name":"Op\u0161tina Ara\u010dinovo","fcode":"ADM1","geonameId":863831,"lat":"42.05","adminName1":"Ara\u010dinovo","population":13107},{"countryId":"718075","adminCode1":"D1","countryName":"Macedonia","fclName":"country, state, region,...","countryCode":"MK","lng":"21.42889","fcodeName":"first-order administrative division","toponymName":"Op\u0161tina Centar","fcl":"A","name":"Op\u0161tina Centar","fcode":"ADM1","geonameId":863840,"lat":"42.005","adminName1":"Centar","population":0},{"countryId":"718075","adminCode1":"18","countryName":"Macedonia","fclName":"country, state, region,...","countryCode":"MK","lng":"20.58333","fcodeName":"first-order administrative division","toponymName":"Op\u0161tina Centar \u017dupa","fcl":"A","name":"Op\u0161tina Centar \u017dupa","fcode":"ADM1","geonameId":863841,"lat":"41.46667","adminName1":"Centar \u017dupa","population":6977},{"countryId":"718075","adminCode1":"22","countryName":"Macedonia","fclName":"country, state, region,...","countryCode":"MK","lng":"22.76667","fcodeName":"first-order administrative division","toponymName":"Op\u0161tina Del\u010devo","fcl":"A","name":"Op\u0161tina Del\u010devo","fcode":"ADM1","geonameId":863844,"lat":"41.93333","adminName1":"Del\u010devo","population":16673},{"countryId":"718075","adminCode1":"E5","countryName":"Macedonia","fclName":"country, state, region,...","countryCode":"MK","lng":"22.7","fcodeName":"first-order administrative division","toponymName":"Op\u0161tina Dojran","fcl":"A","name":"Op\u0161tina Dojran","fcode":"ADM1","geonameId":862949,"lat":"41.23333","adminName1":"Dojran","population":3345},{"countryId":"718075","adminCode1":"41","countryName":"Macedonia","fclName":"country, state, region,...","countryCode":"MK","lng":"21.38333","fcodeName":"first-order administrative division","toponymName":"Op\u0161tina Karpo\u0161","fcl":"A","name":"Op\u0161tina Karpo\u0161","fcode":"ADM1","geonameId":863860,"lat":"42","adminName1":"Karpo\u0161","population":60520},{"countryId":"718075","adminCode1":"43","countryName":"Macedonia","fclName":"country, state, region,...","countryCode":"MK","lng":"20.95","fcodeName":"first-order administrative division","toponymName":"Op\u0161tina Ki\u010devo","fcl":"A","name":"Op\u0161tina Ki\u010devo","fcode":"ADM1","geonameId":863862,"lat":"41.51667","adminName1":"Ki\u010devo","population":30403},{"countryId":"718075","adminCode1":"47","countryName":"Macedonia","fclName":"country, state, region,...","countryCode":"MK","lng":"22.4","fcodeName":"first-order administrative division","toponymName":"Op\u0161tina Kon\u010de","fcl":"A","name":"Op\u0161tina Kon\u010de","fcode":"ADM1","geonameId":862953,"lat":"41.53333","adminName1":"Kon\u010de","population":3597},{"countryId":"718075","adminCode1":"46","countryName":"Macedonia","fclName":"country, state, region,...","countryCode":"MK","lng":"22.4","fcodeName":"first-order administrative division","toponymName":"Op\u0161tina Ko\u010dani","fcl":"A","name":"Op\u0161tina Ko\u010dani","fcode":"ADM1","geonameId":863865,"lat":"41.98333","adminName1":"Ko\u010dani","population":38058},{"countryId":"718075","adminCode1":"53","countryName":"Macedonia","fclName":"country, state, region,...","countryCode":"MK","lng":"21.36667","fcodeName":"first-order administrative division","toponymName":"Op\u0161tina Krivoga\u0161tani","fcl":"A","name":"Op\u0161tina Krivoga\u0161tani","fcode":"ADM1","geonameId":863870,"lat":"41.33333","adminName1":"Krivoga\u0161tani","population":5723},{"countryId":"718075","adminCode1":"54","countryName":"Macedonia","fclName":"country, state, region,...","countryCode":"MK","lng":"21.26667","fcodeName":"first-order administrative division","toponymName":"Op\u0161tina Kru\u0161evo","fcl":"A","name":"Op\u0161tina Kru\u0161evo","fcode":"ADM1","geonameId":863871,"lat":"41.36667","adminName1":"Kru\u0161evo","population":9556},{"countryId":"718075","adminCode1":"59","countryName":"Macedonia","fclName":"country, state, region,...","countryCode":"MK","lng":"21.6","fcodeName":"first-order administrative division","toponymName":"Op\u0161tina Lipkovo","fcl":"A","name":"Op\u0161tina Lipkovo","fcode":"ADM1","geonameId":863875,"lat":"42.16667","adminName1":"Op\u0161tina Lipkovo","population":29519},{"countryId":"718075","adminCode1":"E4","countryName":"Macedonia","fclName":"country, state, region,...","countryCode":"MK","lng":"20.68389","fcodeName":"first-order administrative division","toponymName":"Op\u0161tina Mavrovo i Rostu\u0161a","fcl":"A","name":"Op\u0161tina Mavrovo i Rostu\u0161a","fcode":"ADM1","geonameId":863892,"lat":"41.65778","adminName1":"Op\u0161tina Rostu\u0161a","population":8880},{"countryId":"718075","adminCode1":"78","countryName":"Macedonia","fclName":"country, state, region,...","countryCode":"MK","lng":"22.91667","fcodeName":"first-order administrative division","toponymName":"Op\u0161tina Peh\u010devo","fcl":"A","name":"Op\u0161tina Peh\u010devo","fcode":"ADM1","geonameId":862938,"lat":"41.78333","adminName1":"Peh\u010devo","population":5068},{"countryId":"718075","adminCode1":"83","countryName":"Macedonia","fclName":"country, state, region,...","countryCode":"MK","lng":"22.15","fcodeName":"first-order administrative division","toponymName":"Op\u0161tina Probi\u0161tip","fcl":"A","name":"Op\u0161tina Probi\u0161tip","fcode":"ADM1","geonameId":863889,"lat":"41.96667","adminName1":"Probi\u0161tip","population":15480},{"countryId":"718075","adminCode1":"84","countryName":"Macedonia","fclName":"country, state, region,...","countryCode":"MK","lng":"22.5","fcodeName":"first-order administrative division","toponymName":"Op\u0161tina Radovi\u0161","fcl":"A","name":"Op\u0161tina Radovi\u0161","fcode":"ADM1","geonameId":863890,"lat":"41.65","adminName1":"Radovi\u0161","population":28870},{"countryId":"718075","adminCode1":"85","countryName":"Macedonia","fclName":"country, state, region,...","countryCode":"MK","lng":"22.15","fcodeName":"first-order administrative division","toponymName":"Op\u0161tina Rankovce","fcl":"A","name":"Op\u0161tina Rankovce","fcode":"ADM1","geonameId":863891,"lat":"42.21667","adminName1":"Rankovce","population":3826},{"countryId":"718075","adminCode1":"92","countryName":"Macedonia","fclName":"country, state, region,...","countryCode":"MK","lng":"21.31667","fcodeName":"first-order administrative division","toponymName":"Op\u0161tina Sopi\u0161te","fcl":"A","name":"Op\u0161tina Sopi\u0161te","fcode":"ADM1","geonameId":863896,"lat":"41.9","adminName1":"Sopi\u0161te","population":0},{"countryId":"718075","adminCode1":"97","countryName":"Macedonia","fclName":"country, state, region,...","countryCode":"MK","lng":"21.93333","fcodeName":"first-order administrative division","toponymName":"Op\u0161tina Staro Nagori\u010dane","fcl":"A","name":"Op\u0161tina Staro Nagori\u010dane","fcode":"ADM1","geonameId":863899,"lat":"42.23333","adminName1":"Staro Nagori\u010dane","population":4215},{"countryId":"718075","adminCode1":"A2","countryName":"Macedonia","fclName":"country, state, region,...","countryCode":"MK","lng":"21.43333","fcodeName":"first-order administrative division","toponymName":"Op\u0161tina Studeni\u010dani","fcl":"A","name":"Op\u0161tina Studeni\u010dani","fcode":"ADM1","geonameId":863903,"lat":"41.83333","adminName1":"Studeni\u010dani","population":20252},{"countryId":"718075","adminCode1":"B3","countryName":"Macedonia","fclName":"country, state, region,...","countryCode":"MK","lng":"20.58333","fcodeName":"first-order administrative division","toponymName":"Op\u0161tina Vev\u010dani","fcl":"A","name":"Op\u0161tina Vev\u010dani","fcode":"ADM1","geonameId":863911,"lat":"41.23333","adminName1":"Vev\u010dani","population":2480},{"countryId":"718075","adminCode1":"B6","countryName":"Macedonia","fclName":"country, state, region,...","countryCode":"MK","lng":"21.05","fcodeName":"first-order administrative division","toponymName":"Op\u0161tina Vrane\u0161tica","fcl":"A","name":"Op\u0161tina Vrane\u0161tica","fcode":"ADM1","geonameId":863913,"lat":"41.5","adminName1":"Vrane\u0161tica","population":1249},{"countryId":"718075","adminCode1":"B7","countryName":"Macedonia","fclName":"country, state, region,...","countryCode":"MK","lng":"20.85","fcodeName":"first-order administrative division","toponymName":"Op\u0161tina Vrap\u010di\u0161te","fcl":"A","name":"Op\u0161tina Vrap\u010di\u0161te","fcode":"ADM1","geonameId":863914,"lat":"41.85","adminName1":"Vrap\u010di\u0161te","population":27182},{"countryId":"718075","adminCode1":"C8","countryName":"Macedonia","fclName":"country, state, region,...","countryCode":"MK","lng":"21.44389","fcodeName":"first-order administrative division","toponymName":"Op\u0161tina \u010cair","fcl":"A","name":"Op\u0161tina \u010cair","fcode":"ADM1","geonameId":863836,"lat":"42.07917","adminName1":"\u010cair","population":0},{"countryId":"718075","adminCode1":"C9","countryName":"Macedonia","fclName":"country, state, region,...","countryCode":"MK","lng":"21.59028","fcodeName":"first-order administrative division","toponymName":"Op\u0161tina \u010ca\u0161ka","fcl":"A","name":"Op\u0161tina \u010ca\u0161ka","fcode":"ADM1","geonameId":863838,"lat":"41.59833","adminName1":"\u010ca\u0161ka","population":7851},{"countryId":"718075","adminCode1":"19","countryName":"Macedonia","fclName":"country, state, region,...","countryCode":"MK","lng":"22.26667","fcodeName":"first-order administrative division","toponymName":"Op\u0161tina \u010ce\u0161inovo-Oble\u0161evo","fcl":"A","name":"Op\u0161tina \u010ce\u0161inovo-Oble\u0161evo","fcode":"ADM1","geonameId":862977,"lat":"41.9","adminName1":"\u010ce\u0161inovo","population":7125},{"countryId":"718075","adminCode1":"20","countryName":"Macedonia","fclName":"country, state, region,...","countryCode":"MK","lng":"21.41667","fcodeName":"first-order administrative division","toponymName":"Op\u0161tina \u010cu\u010der-Sandevo","fcl":"A","name":"Op\u0161tina \u010cu\u010der-Sandevo","fcode":"ADM1","geonameId":863842,"lat":"42.16667","adminName1":"\u010cu\u010der-Sandevo","population":9711},{"countryId":"718075","adminCode1":"98","countryName":"Macedonia","fclName":"country, state, region,...","countryCode":"MK","lng":"22.2","fcodeName":"first-order administrative division","toponymName":"Op\u0161tina \u0160tip","fcl":"A","name":"Op\u0161tina \u0160tip","fcode":"ADM1","geonameId":863900,"lat":"41.7","adminName1":"\u0160tip","population":48578},{"countryId":"718075","adminCode1":"A3","countryName":"Macedonia","fclName":"country, state, region,...","countryCode":"MK","lng":"21.41667","fcodeName":"first-order administrative division","toponymName":"Op\u0161tina \u0160uto Orizari","fcl":"A","name":"Op\u0161tina \u0160uto Orizari","fcode":"ADM1","geonameId":863904,"lat":"42.05","adminName1":"\u0160uto Orizari","population":0},{"countryId":"718075","adminCode1":"C3","countryName":"Macedonia","fclName":"country, state, region,...","countryCode":"MK","lng":"21.13333","fcodeName":"first-order administrative division","toponymName":"Op\u0161tina \u017delino","fcl":"A","name":"Op\u0161tina \u017delino","fcode":"ADM1","geonameId":863919,"lat":"41.93333","adminName1":"\u017delino","population":27218},{"countryId":"718075","adminCode1":"77","countryName":"Macedonia","fclName":"country, state, region,...","countryCode":"MK","lng":"21.05","fcodeName":"first-order administrative division","toponymName":"Oslomej","fcl":"A","name":"Oslomej","fcode":"ADM1","geonameId":863885,"lat":"41.6","adminName1":"Oslomej","population":10566},{"countryId":"718075","adminCode1":"79","countryName":"Macedonia","fclName":"country, state, region,...","countryCode":"MK","lng":"21.71667","fcodeName":"first-order administrative division","toponymName":"Petrovec","fcl":"A","numberOfChildren":1,"name":"Petrovec","fcode":"ADM1","geonameId":863886,"lat":"41.91667","adminName1":"Petrovec","population":8875},{"countryId":"718075","adminCode1":"80","countryName":"Macedonia","fclName":"country, state, region,...","countryCode":"MK","lng":"21.11667","fcodeName":"first-order administrative division","toponymName":"Plasnica","fcl":"A","name":"Plasnica","fcode":"ADM1","geonameId":863887,"lat":"41.45","adminName1":"Plasnica","population":4803},{"countryId":"718075","adminCode1":"E3","countryName":"Macedonia","fclName":"country, state, region,...","countryCode":"MK","lng":"21.67583","fcodeName":"first-order administrative division","toponymName":"Prilep","fcl":"A","name":"Prilep","fcode":"ADM1","geonameId":863888,"lat":"41.28778","adminName1":"Prilep","population":75898},{"countryId":"718075","adminCode1":"86","countryName":"Macedonia","fclName":"country, state, region,...","countryCode":"MK","lng":"21.01667","fcodeName":"first-order administrative division","toponymName":"Resen","fcl":"A","name":"Resen","fcode":"ADM1","geonameId":786339,"lat":"41.03333","adminName1":"Resen","population":16539},{"countryId":"718075","adminCode1":"87","countryName":"Macedonia","fclName":"country, state, region,...","countryCode":"MK","lng":"21.91667","fcodeName":"first-order administrative division","toponymName":"Rosoman","fcl":"A","name":"Rosoman","fcode":"ADM1","geonameId":862973,"lat":"41.5","adminName1":"Rosoman","population":4080},{"countryId":"718075","adminCode1":"90","countryName":"Macedonia","fclName":"country, state, region,...","countryCode":"MK","lng":"21.26667","fcodeName":"first-order administrative division","toponymName":"Saraj","fcl":"A","name":"Saraj","fcode":"ADM1","geonameId":863894,"lat":"41.98333","adminName1":"Saraj","population":39510},{"countryId":"718075","adminCode1":"E6","countryName":"Macedonia","fclName":"country, state, region,...","countryCode":"MK","lng":"20.63361","fcodeName":"first-order administrative division","toponymName":"Struga","fcl":"A","numberOfChildren":2,"name":"Struga","fcode":"ADM1","geonameId":863901,"lat":"41.28139","adminName1":"Struga","population":64956},{"countryId":"718075","adminCode1":"E7","countryName":"Macedonia","fclName":"country, state, region,...","countryCode":"MK","lng":"22.64639","fcodeName":"first-order administrative division","toponymName":"Strumica","fcl":"A","name":"Strumica","fcode":"ADM1","geonameId":863902,"lat":"41.41111","adminName1":"Strumica","population":56533},{"countryId":"718075","adminCode1":"A4","countryName":"Macedonia","fclName":"country, state, region,...","countryCode":"MK","lng":"21.98333","fcodeName":"first-order administrative division","toponymName":"Sveti Nikole","fcl":"A","name":"Sveti Nikole","fcode":"ADM1","geonameId":863905,"lat":"41.9","adminName1":"Sveti Nikole","population":17966},{"countryId":"718075","adminCode1":"A5","countryName":"Macedonia","fclName":"country, state, region,...","countryCode":"MK","lng":"21.05","fcodeName":"first-order administrative division","toponymName":"Tearce","fcl":"A","name":"Tearce","fcode":"ADM1","geonameId":863906,"lat":"42.1","adminName1":"Tearce","population":0},{"countryId":"718075","adminCode1":"E8","countryName":"Macedonia","fclName":"country, state, region,...","countryCode":"MK","lng":"20.9025","fcodeName":"first-order administrative division","toponymName":"Tetovo","fcl":"A","name":"Tetovo","fcode":"ADM1","geonameId":863907,"lat":"42.04444","adminName1":"Tetovo","population":90650},{"countryId":"718075","adminCode1":"E9","countryName":"Macedonia","fclName":"country, state, region,...","countryCode":"MK","lng":"22.53222","fcodeName":"first-order administrative division","toponymName":"Valandovo","fcl":"A","name":"Valandovo","fcode":"ADM1","geonameId":784732,"lat":"41.33444","adminName1":"Valandovo","population":11909},{"countryId":"718075","adminCode1":"A9","countryName":"Macedonia","fclName":"country, state, region,...","countryCode":"MK","lng":"22.66667","fcodeName":"first-order administrative division","toponymName":"Vasilevo","fcl":"A","name":"Vasilevo","fcode":"ADM1","geonameId":862947,"lat":"41.53333","adminName1":"Vasilevo","population":12753},{"countryId":"718075","adminCode1":"F1","countryName":"Macedonia","fclName":"country, state, region,...","countryCode":"MK","lng":"21.76278","fcodeName":"first-order administrative division","toponymName":"Veles","fcl":"A","name":"Veles","fcode":"ADM1","geonameId":863909,"lat":"41.77583","adminName1":"Veles","population":54955},{"countryId":"718075","adminCode1":"B4","countryName":"Macedonia","fclName":"country, state, region,...","countryCode":"MK","lng":"22.58417","fcodeName":"first-order administrative division","toponymName":"Vinica","fcl":"A","numberOfChildren":1,"name":"Vinica","fcode":"ADM1","geonameId":863912,"lat":"41.85917","adminName1":"Vinica","population":19521},{"countryId":"718075","adminCode1":"C1","countryName":"Macedonia","fclName":"country, state, region,...","countryCode":"MK","lng":"20.9","fcodeName":"first-order administrative division","toponymName":"Zajas","fcl":"A","name":"Zajas","fcode":"ADM1","geonameId":863917,"lat":"41.6","adminName1":"Zajas","population":11887},{"countryId":"718075","adminCode1":"C2","countryName":"Macedonia","fclName":"country, state, region,...","countryCode":"MK","lng":"21.58333","fcodeName":"first-order administrative division","toponymName":"Zelenikovo","fcl":"A","name":"Zelenikovo","fcode":"ADM1","geonameId":863918,"lat":"41.83333","adminName1":"Zelenikovo","population":4642},{"countryId":"718075","adminCode1":"C6","countryName":"Macedonia","fclName":"country, state, region,...","countryCode":"MK","lng":"22.45","fcodeName":"first-order administrative division","toponymName":"Zrnovci","fcl":"A","name":"Zrnovci","fcode":"ADM1","geonameId":862958,"lat":"41.83333","adminName1":"Zrnovci","population":3098}]}